     2.11           OBSERVATION DATA    G (GPS)             RINEX VERSION / TYPE
pyNEX                                   20160928 135909 UTC PGM / RUN BY / DATE
                                                            MARKER NAME
                                                            OBSERVER / AGENCY
                                                            REC # / TYPE / VERS
                                                            ANT # / TYPE
   808673.9171 -4086658.5368  4115497.9775                  APPROX POSITION XYZ
        0.0000        0.0000        0.0000                  ANTENNA: DELTA H/E/N
     1     0                                                WAVELENGTH FACT L1/2
     3    C1    L1    S1                                    # / TYPES OF OBSERV
  2016    09    28    13    59   25.6000000     GPS         TIME OF FIRST OBS
                                                            END OF HEADER
 16 09 28 13 59 25.6000000  0  9G14G22G28G32G 8G11G17G 1G 3         
  24669057.830      163269.055          44.750  
  23537296.680      285224.551          49.000  
  26434244.150     -154638.418          42.750  
  25320581.490     -167159.121          47.750  
  25851246.450     -463877.867          44.500  
  23094296.500      -97100.281          50.250  
  26688493.840      107832.836          40.750  
  22980000.000      128310.617          48.250  
  24529422.300      503888.492          50.500  
 16 09 28 13 59 25.8000000  0  9G14G22G28G32G 8G11G17G 1G 3         
  24669048.840      163462.801          50.000  
  23537252.850      285597.066          51.250  
  26434311.020     -154844.172          36.500  
  25320653.280     -167384.777          47.000  
  25851387.350     -464476.254          44.500  
  23094350.980      -97238.305          52.000  
  26688385.840      108547.102          39.250  
  22980000.000      128464.871          49.000  
  24529331.940      504510.031          51.500  
 16 09 28 13 59 26.0000000  0  9G14G22G28G32G 8G11G17G 1G 3         
  24669043.390      163656.547          46.750  
  23537212.670      285969.570          48.750  
  26434377.890     -155049.918          44.000  
  25320726.910     -167610.469          48.750  
  25851529.760     -465074.684          42.500  
  23094407.710      -97376.305          49.000  
  26688276.650      109261.375          40.500  
  22980000.000      128619.145          51.500  
  24529242.320      505131.547          46.250  
 16 09 28 13 59 26.2000000  0  9G14G22G28G32G 8G11G17G 1G 3         
  24669037.640      163850.191          47.250  
  23537173.380      286342.023          49.500  
  26434447.480     -155255.766          43.500  
  25320800.790     -167836.203          46.750  
  25851676.100     -465673.160          45.250  
  23094463.870      -97514.391          52.750  
  26688168.130      109975.520          42.500  
  22980000.000      128773.324          54.250  
  24529156.360      505753.008          47.750  
 16 09 28 13 59 26.4000000  0  9G14G22G28G32G 8G11G17G 1G 3         
  24669032.120      164043.898          41.750  
  23537132.720      286714.484          44.000  
  26434515.040     -155461.559          43.250  
  25320875.360     -168061.906          47.250  
  25851820.640     -466271.559          45.750  
  23094521.080      -97652.465          50.000  
  26688058.680      110689.766          44.500  
  22980000.000      128927.551          50.500  
  24529069.300      506374.535          51.000  
 16 09 28 13 59 26.6000000  0  9G14G22G28G32G 8G11G17G 1G 3         
  24669025.190      164237.531          47.750  
  23537091.270      287086.934          50.750  
  26434584.500     -155667.379          46.000  
  25320946.970     -168287.688          45.750  
  25851964.480     -466870.020          44.250  
  23094575.560      -97790.570          50.000  
  26687949.980      111403.977          39.500  
  22980000.000      129081.738          46.500  
  24528981.530      506996.000          48.500  
 16 09 28 13 59 26.8000000  0  9G14G22G28G32G 8G11G17G 1G 3         
  24669016.990      164431.000          43.000  
  23537047.890      287459.207          48.250  
  26434650.580     -155873.383          39.250  
  25321019.320     -168513.602          45.500  
  25852107.050     -467468.648          44.000  
  23094630.590      -97928.848          50.000  
  26687843.960      112117.980          44.250  
  22980000.000      129235.762          50.250  
  24528891.410      507617.309          49.250  
 16 09 28 13 59 27.0000000  0  9G14G22G28G32G 8G11G17G 1G 3         
  24669007.640      164624.348          49.750  
  23537004.810      287831.355          51.000  
  26434718.410     -156079.465          42.750  
  25321090.200     -168739.660          46.500  
  25852252.530     -468067.332          45.250  
  23094684.310      -98067.230          49.500  
  26687739.740      112831.922          39.250  
  22980000.000      129389.668          50.750  
  24528799.620      508238.480          48.500  
 16 09 28 13 59 27.2000000  0  9G14G22G28G32G 8G11G17G 1G 3         
  24668994.970      164817.656          45.750  
  23536963.680      288203.480          45.500  
  26434786.620     -156285.684          43.500  
  25321163.210     -168965.766          48.750  
  25852394.280     -468666.059          39.750  
  23094738.290      -98205.703          47.750  
  26687633.790      113545.801          37.500  
  22980000.000      129543.535          52.500  
  24528710.540      508859.652          45.750  
 16 09 28 13 59 27.4000000  0  9G14G22G28G32G 8G11G17G 1G 3         
  24668987.570      165010.750          47.500  
  23536920.820      288575.414          48.750  
  26434852.930     -156491.996          41.500  
  25321234.730     -169192.051          44.500  
  25852534.860     -469264.980          41.500  
  23094793.500      -98344.312          46.250  
  26687527.860      114259.488          43.500  
  22980000.000      129697.188          52.000  
  24528617.930      509480.641          44.500  
 16 09 28 13 59 27.6000000  0  9G14G22G28G32G 8G11G17G 1G 3         
  24668983.380      165203.906          40.000  
  23536881.700      288947.418          48.250  
  26434923.240     -156698.312          46.000  
  25321308.050     -169418.301          39.750  
  25852678.960     -469863.824          47.000  
  23094850.200      -98482.895          47.750  
  26687424.660      114973.246          40.750  
  22980000.000      129850.930          51.500  
  24528530.960      510101.680          49.000  
 16 09 28 13 59 27.8000000  0  9G14G22G28G32G 8G11G17G 1G 3         
  24668977.680      165397.016          46.750  
  23536840.340      289319.359          43.000  
  26434987.400     -156904.625          44.000  
  25321379.390     -169644.574          48.000  
  25852820.170     -470462.754          42.750  
  23094906.840      -98621.520          53.750  
  26687316.630      115687.008          37.250  
  22980000.000      130004.613          50.500  
  24528440.150      510722.691          46.000  
 16 09 28 13 59 28.0000000  0  9G14G22G28G32G 8G11G17G 1G 3         
  24668972.970      165590.027          43.750  
  23536799.650      289691.219          48.000  
  26435053.230     -157111.031          42.000  
  25321449.760     -169870.922          47.500  
  25852966.170     -471061.711          40.750  
  23094963.240      -98760.234          48.750  
  26687209.340      116400.703          40.000  
  22980000.000      130158.242          48.000  
  24528350.350      511343.637          45.250  
 16 09 28 13 59 28.2000000  0  9G14G22G28G32G 8G11G17G 1G 3         
  24668966.180      165782.957          41.500  
  23536756.750      290063.008          46.750  
  26435122.000     -157317.520          44.000  
  25321520.390     -170097.371          47.000  
  25853109.560     -471660.793          44.250  
  23095020.740      -98899.051          46.500  
  26687102.440      117114.305          40.250  
  22980000.000      130311.762          50.250  
  24528262.820      511964.449          48.750  
 16 09 28 13 59 28.4000000  0  9G14G22G28G32G 8G11G17G 1G 3         
  24668958.670      165975.812          48.250  
  23536715.920      290434.711          48.750  
  26435194.700     -157524.145          41.750  
  25321593.120     -170323.934          50.000  
  25853254.030     -472259.891          43.000  
  23095076.730      -99037.957          50.750  
  26686993.240      117827.785          39.750  
  22980000.000      130465.195          47.250  
  24528176.130      512585.199          49.500  
 16 09 28 13 59 28.6000000  0  9G14G22G28G32G 8G11G17G 1G 3         
  24668951.480      166168.473          47.500  
  23536674.000      290806.242          46.500  
  26435264.620     -157730.832          47.500  
  25321662.050     -170550.652          46.000  
  25853397.090     -472859.180          45.500  
  23095133.760      -99177.039          44.750  
  26686884.460      118541.156          38.500  
  22980000.000      130618.461          50.000  
  24528088.560      513205.809          44.500  
 16 09 28 13 59 28.8000000  0  9G14G22G28G32G 8G11G17G 1G 3         
  24668942.720      166361.070          47.000  
  23536632.490      291177.730          46.000  
  26435335.540     -157937.625          42.250  
  25321734.050     -170777.438          46.000  
  25853539.380     -473458.531          47.500  
  23095188.640      -99316.168          49.500  
  26686770.140      119254.477          39.500  
  22980000.000      130771.668          46.500  
  24527999.810      513826.340          48.250  
 16 09 28 13 59 29.0000000  0  9G14G22G28G32G 8G11G17G 1G 3         
  24668936.880      166552.996          46.000  
  23536592.340      291548.512          49.500  
  26435405.860     -158145.172          42.000  
  25321807.510     -171004.918          44.250  
  25853684.600     -474058.500          49.250  
  23095244.260      -99455.980          48.500  
  26686666.540      119967.105          39.750  
  22980000.000      130924.188          46.750  
  24527912.050      514446.195          49.750  
 16 09 28 13 59 29.2000000  0  9G14G22G28G32G 8G11G17G 1G 3         
  24668927.630      166744.844          47.750  
  23536549.440      291919.246          46.500  
  26435474.700     -158352.719          44.250  
  25321881.270     -171232.453          42.500  
  25853827.220     -474658.559          47.000  
  23095299.870      -99595.859          45.000  
  26686562.570      120679.621          38.500  
  22980000.000      131076.629          48.500  
  24527822.850      515066.016          49.750  
 16 09 28 13 59 29.4000000  0  9G14G22G28G32G 8G11G17G 1G 3         
  24668918.990      166936.648          41.500  
  23536507.420      292289.938          46.000  
  26435541.680     -158560.344          41.000  
  25321953.950     -171460.008          42.750  
  25853968.220     -475258.664          43.500  
  23095354.330      -99735.797          43.500  
  26686455.700      121392.172          44.250  
  22980000.000      131229.051          46.750  
  24527731.880      515685.801          48.000  
 16 09 28 13 59 29.6000000  0  9G14G22G28G32G 8G11G17G 1G 3         
  24668915.150      167128.555          43.250  
  23536465.950      292660.797          47.000  
  26435606.690     -158767.805          42.500  
  25322024.850     -171687.449          41.000  
  25854109.420     -475858.598          42.250  
  23095408.430      -99875.609          46.500  
  26686350.710      122104.852          38.500  
  22980000.000      131381.621          47.500  
  24527644.840      516305.711          46.500  
 16 09 28 13 59 29.8000000  0  9G14G22G28G32G 8G11G17G 1G 3         
  24668907.820      167320.191          46.000  
  23536420.490      293031.359          47.750  
  26435673.250     -158975.547          45.000  
  25322099.090     -171915.211          46.000  
  25854248.780     -476458.793          46.750  
  23095461.270     -100015.691          47.500  
  26686239.440      122817.281          46.250  
  22980000.000      131533.906          45.750  
  24527555.550      516925.332          47.750  
 16 09 28 13 59 30.0000000  0  9G14G22G28G32G 8G11G17G 1G 3         
  24668901.590      167511.473          44.000  
  23536380.670      293401.566          44.000  
  26435743.310     -159183.613          43.250  
  25322174.840     -172143.328          42.750  
  25854397.510     -477059.363          43.750  
  23095519.780     -100156.125          45.750  
  26686129.180      123529.309          42.250  
  22980000.000      131685.840          46.750  
  24527467.490      517544.641          52.000  
 16 09 28 13 59 30.2000000  0  9G14G22G28G32G 8G11G17G 1G 3         
  24668892.780      167702.773          46.250  
  23536344.250      293771.809          49.250  
  26435818.100     -159391.664          46.750  
  25322251.380     -172371.395          41.250  
  25854546.060     -477659.832          42.750  
  23095577.520     -100296.547          47.000  
  26686025.380      124241.410          36.250  
  22980000.000      131837.793          52.500  
  24527382.790      518164.000          44.500  
 16 09 28 13 59 30.4000000  0  9G14G22G28G32G 8G11G17G 1G 3         
  24668884.300      167893.559          46.000  
  23536303.990      294141.516          53.000  
  26435888.460     -159600.273          49.250  
  25322323.710     -172599.980          46.250  
  25854693.100     -478260.918          45.250  
  23095637.580     -100437.531          50.250  
  26685917.560      124952.977          38.000  
  22980000.000      131989.215          52.250  
  24527293.640      518782.797          48.750  
 16 09 28 13 59 30.6000000  0  9G14G22G28G32G 8G11G17G 1G 3         
  24668876.220      168084.633          46.250  
  23536262.600      294511.551          49.500  
  26435956.820     -159808.535          44.250  
  25322394.990     -172828.238          46.000  
  25854836.710     -478861.582          42.750  
  23095692.170     -100578.156          49.750  
  26685812.790      125664.965          36.500  
  22980000.000      132140.973          49.500  
  24527203.870      519401.938          44.250  
 16 09 28 13 59 30.8000000  0  9G14G22G28G32G 8G11G17G 1G 3         
  24668868.790      168276.180          46.500  
  23536219.580      294882.062          46.000  
  26436024.030     -160016.336          42.000  
  25322466.150     -173056.094          47.750  
  25854976.720     -479461.840          44.250  
  23095746.070     -100718.332          47.750  
  26685711.420      126377.422          41.000  
  22980000.000      132293.168          54.000  
  24527113.720      520021.512          50.750  
 16 09 28 13 59 31.0000000  0  9G14G22G28G32G 8G11G17G 1G 3         
  24668860.950      168467.148          45.250  
  23536176.480      295251.992          48.750  
  26436089.890     -160224.660          42.000  
  25322538.820     -173284.492          43.500  
  25855119.810     -480062.633          45.250  
  23095800.660     -100859.078          47.750  
  26685604.060      127089.230          36.000  
  22980000.000      132444.836          50.000  
  24527026.190      520640.547          45.500  
 16 09 28 13 59 31.2000000  0  9G14G22G28G32G 8G11G17G 1G 3         
  24668850.640      168655.898          42.000  
  23536133.290      295619.691          44.500  
  26436155.420     -160435.289          42.750  
  25322608.020     -173515.109          48.000  
  25855260.160     -480665.629          42.250  
  23095854.370     -101002.062          51.000  
  26685493.130      127798.891          32.750  
  22980000.000      132594.238          53.000  
  24526936.120      521257.352          49.000  
 16 09 28 13 59 31.4000000  0  9G14G22G28G32G 8G11G17G 1G 3         
  24668843.800      168845.234          43.000  
  23536088.240      295988.016          45.500  
  26436221.060     -160645.277          46.750  
  25322678.800     -173745.121          41.500  
  25855400.720     -481268.012          41.500  
  23095908.850     -101144.422          49.500  
  26685381.900      128509.082          37.250  
  22980000.000      132744.285          48.500  
  24526845.250      521874.793          50.750  
 16 09 28 13 59 31.6000000  0  9G14G22G28G32G 8G11G17G 1G 3         
  24668835.390      169036.285          49.000  
  23536048.030      296358.062          49.000  
  26436290.430     -160853.543          42.500  
  25322750.920     -173973.434          48.750  
  25855542.310     -481868.703          47.750  
  23095964.690     -101285.109          48.500  
  26685275.550      129221.043          35.250  
  22980000.000      132896.012          50.000  
  24526757.670      522493.922          47.750  
 16 09 28 13 59 31.8000000  0  9G14G22G28G32G 8G11G17G 1G 3         
  24668827.480      169227.082          46.500  
  23536009.810      296727.836          44.250  
  26436363.580     -161062.109          46.000  
  25322824.820     -174202.020          46.250  
  25855685.210     -482469.660          42.500  
  23096020.930     -101426.062          48.000  
  26685167.770      129932.684          37.500  
  22980000.000      133047.469          54.750  
  24526669.250      523112.824          52.750  
 16 09 28 13 59 32.0000000  0  9G14G22G28G32G 8G11G17G 1G 3         
  24668816.910      169417.254          45.500  
  23535969.170      297097.027          49.000  
  26436434.360     -161271.219          45.500  
  25322895.270     -174431.191          45.500  
  25855829.440     -483071.125          42.250  
  23096075.710     -101567.559          45.000  
  26685064.330      130643.805          33.500  
  22980000.000      133198.379          48.750  
  24526579.140      523731.117          49.500  
 16 09 28 13 59 32.2000000  0  9G14G22G28G32G 8G11G17G 1G 3         
  24668810.840      169607.969          46.000  
  23535927.240      297466.715          47.500  
  26436499.570     -161479.859          46.250  
  25322967.080     -174659.832          46.750  
  25855974.120     -483672.086          47.250  
  23096134.640     -101708.605          50.000  
  26684954.710      131355.398          34.500  
  22980000.000      133349.770          48.250  
  24526492.060      524349.941          47.000  
 16 09 28 13 59 32.4000000  0  9G14G22G28G32G 8G11G17G 1G 3         
  24668806.840      169798.180          46.500  
  23535885.290      297835.953          44.000  
  26436565.620     -161688.957          40.250  
  25323040.630     -174888.965          46.750  
  25856116.480     -484273.559          46.000  
  23096191.800     -101850.094          50.750  
  26684854.090      132066.578          40.750  
  22980000.000      133500.711          51.750  
  24526405.180      524968.293          47.250  
 16 09 28 13 59 32.6000000  0  9G14G22G28G32G 8G11G17G 1G 3         
  24668798.200      169989.570          42.500  
  23535841.140      298206.359          47.250  
  26436632.490     -161896.832          45.750  
  25323111.040     -175116.918          42.750  
  25856255.750     -484873.805          46.750  
  23096244.380     -101990.402          46.000  
  26684744.540      132778.938          37.250  
  22980000.000      133652.816          46.250  
  24526314.210      525587.836          46.750  
 16 09 28 13 59 32.8000000  0  9G14G22G28G32G 8G11G17G 1G 3         
  24668792.270      170180.574          44.750  
  23535799.890      298576.434          46.500  
  26436700.390     -162105.094          42.500  
  25323183.970     -175345.234          42.000  
  25856400.320     -485474.418          45.500  
  23096298.910     -102131.078          48.500  
  26684634.950      133490.957          36.750  
  22980000.000      133804.578          51.250  
  24526224.270      526207.000          48.750  
 16 09 28 13 59 33.0000000  0  9G14G22G28G32G 8G11G17G 1G 3         
  24668782.170      170372.434          45.000  
  23535756.520      298947.309          46.500  
  26436767.540     -162312.562          42.500  
  25323256.600     -175572.730          43.000  
  25856540.870     -486074.133          42.500  
  23096354.630     -102270.969          47.750  
  26684523.600      134203.773          32.250  
  22980000.000      133957.152          49.000  
  24526133.250      526827.027          48.250  
 16 09 28 13 59 33.2000000  0  9G14G22G28G32G 8G11G17G 1G 3         
  24668773.140      170564.582          42.750  
  23535715.670      299318.492          47.000  
  26436836.200     -162519.691          42.250  
  25323328.890     -175799.965          41.000  
  25856685.370     -486673.664          47.500  
  23096409.650     -102410.527          49.250  
  26684416.310      134916.883          34.500  
  22980000.000      134110.031          52.000  
  24526042.350      527447.324          49.250  
 16 09 28 13 59 33.4000000  0  9G14G22G28G32G 8G11G17G 1G 3         
  24668767.540      170756.238          45.250  
  23535676.040      299689.215          46.000  
  26436903.400     -162727.266          42.500  
  25323400.960     -176027.629          49.000  
  25856828.270     -487273.578          44.750  
  23096466.230     -102550.562          45.250  
  26684314.820      135629.613          40.000  
  22980000.000      134262.449          52.000  
  24525953.830      528067.215          53.250  
 16 09 28 13 59 33.6000000  0  9G14G22G28G32G 8G11G17G 1G 3         
  24668759.690      170947.656          49.000  
  23535635.310      300059.703          50.250  
  26436973.340     -162935.113          43.250  
  25323473.070     -176255.566          49.750  
  25856970.770     -487873.688          47.250  
  23096521.840     -102690.844          48.000  
  26684212.220      136342.129          40.250  
  22980000.000      134414.617          52.000  
  24525866.990      528686.832          46.500  
 16 09 28 13 59 33.8000000  0  9G14G22G28G32G 8G11G17G 1G 3         
  24668751.770      171138.676          42.500  
  23535593.640      300429.793          48.000  
  26437042.480     -163143.324          49.000  
  25323548.500     -176483.879          49.000  
  25857115.840     -488474.223          40.250  
  23096574.500     -102831.500          50.000  
  26684111.420      137054.219          35.250  
  22980000.000      134566.398          47.750  
  24525778.610      529306.074          49.250  
 16 09 28 13 59 34.0000000  0  9G14G22G28G32G 8G11G17G 1G 3         
  24668746.240      171329.824          49.750  
  23535551.570      300800.012          51.000  
  26437108.200     -163351.434          43.250  
  25323623.450     -176712.062          46.500  
  25857261.610     -489074.672          46.250  
  23096631.810     -102972.109          48.500  
  26684005.800      137766.352          38.000  
  22980000.000      134718.301          48.250  
  24525689.450      529925.426          45.500  
 16 09 28 13 59 34.2000000  0  9G14G22G28G32G 8G11G17G 1G 3         
  24668739.970      171521.066          46.250  
  23535512.030      301170.312          50.250  
  26437179.920     -163559.488          48.500  
  25323696.010     -176940.199          45.250  
  25857407.730     -489674.957          43.750  
  23096687.150     -103112.562          43.500  
  26683898.930      138478.629          38.500  
  22980000.000      134870.293          50.250  
  24525602.290      530544.875          48.500  
 16 09 28 13 59 34.4000000  0  9G14G22G28G32G 8G11G17G 1G 3         
  24668732.050      171712.363          46.500  
  23535469.050      301540.688          46.500  
  26437247.190     -163767.449          46.250  
  25323766.870     -177168.215          42.250  
  25857548.010     -490275.152          44.500  
  23096740.750     -103252.973          48.250  
  26683788.700      139191.102          37.750  
  22980000.000      135022.391          50.500  
  24525513.310      531164.441          50.250  
 16 09 28 13 59 34.6000000  0  9G14G22G28G32G 8G11G17G 1G 3         
  24668722.190      171903.426          51.500  
  23535424.950      301910.898          46.250  
  26437313.660     -163975.566          45.250  
  25323838.560     -177396.473          50.000  
  25857690.870     -490875.539          39.500  
  23096794.920     -103393.609          46.500  
  26683679.390      139903.277          39.000  
  22980000.000      135174.230          47.500  
  24525422.850      531783.773          46.500  
 16 09 28 13 59 34.8000000  0  9G14G22G28G32G 8G11G17G 1G 3         
  24668713.520      172093.699          43.000  
  23535383.700      302280.266          48.750  
  26437381.030     -164184.516          45.500  
  25323909.220     -177625.520          44.000  
  25857834.680     -491476.754          43.750  
  23096851.470     -103535.016          46.500  
  26683571.720      140614.715          35.750  
  22980000.000      135325.301          49.250  
  24525333.070      532402.305          50.000  
 16 09 28 13 59 35.0000000  0  9G14G22G28G32G 8G11G17G 1G 3         
  24668701.950      172283.449          45.500  
  23535342.830      302649.141          51.500  
  26437450.210     -164393.996          44.250  
  25323979.990     -177855.121          45.250  
  25857975.890     -492078.512          40.000  
  23096907.580     -103676.969          48.000  
  26683461.670      141325.547          37.000  
  22980000.000      135475.812          50.500  
  24525242.940      533020.336          49.500  
 16 09 28 13 59 35.2000000  0  9G14G22G28G32G 8G11G17G 1G 3         
  24668694.220      172473.781          45.250  
  23535304.250      303018.613          49.750  
  26437521.590     -164602.852          43.250  
  25324050.750     -178084.090          43.750  
  25858119.290     -492679.605          44.750  
  23096965.140     -103818.332          45.000  
  26683356.320      142037.109          41.750  
  22980000.000      135626.969          52.750  
  24525153.660      533638.965          48.500  
 16 09 28 13 59 35.4000000  0  9G14G22G28G32G 8G11G17G 1G 3         
  24668687.900      172664.879          49.750  
  23535262.840      303388.836          44.000  
  26437590.660     -164810.973          47.750  
  25324121.850     -178312.363          49.500  
  25858260.190     -493279.957          47.500  
  23097020.850     -103958.949          53.000  
  26683252.580      142749.289          40.500  
  22980000.000      135778.871          50.000  
  24525064.560      534258.348          50.750  
 16 09 28 13 59 35.6000000  0  9G14G22G28G32G 8G11G17G 1G 3         
  24668683.140      172856.410          43.750  
  23535221.150      303759.496          46.500  
  26437659.020     -165018.711          42.000  
  25324194.230     -178540.160          48.000  
  25858400.570     -493879.828          46.750  
  23097078.570     -104099.113          46.750  
  26683145.850      143461.977          37.250  
  22980000.000      135931.188          46.500  
  24524977.190      534878.164          51.750  
 16 09 28 13 59 35.8000000  0  9G14G22G28G32G 8G11G17G 1G 3         
  24668680.190      173048.016          45.500  
  23535180.020      304130.238          46.000  
  26437725.240     -165226.285          43.250  
  25324267.730     -178767.848          46.000  
  25858545.320     -494479.625          48.000  
  23097133.750     -104239.184          46.000  
  26683039.090      144174.773          37.000  
  22980000.000      136083.609          45.750  
  24524888.650      535498.113          50.250  
 16 09 28 13 59 36.0000000  0  9G14G22G28G32G 8G11G17G 1G 3         
  24668669.750      173239.602          45.500  
  23535137.600      304500.988          43.000  
  26437792.210     -165433.859          38.750  
  25324337.160     -178995.609          44.500  
  25858685.730     -495079.398          44.000  
  23097187.090     -104379.301          45.250  
  26682932.120      144887.523          37.500  
  22980000.000      136236.035          48.500  
  24524799.390      536118.020          48.250  
 16 09 28 13 59 36.2000000  0  9G14G22G28G32G 8G11G17G 1G 3         
  24668663.220      173431.191          44.000  
  23535098.530      304871.758          43.500  
  26437864.960     -165641.465          44.250  
  25324412.270     -179223.316          39.500  
  25858830.580     -495679.164          42.500  
  23097242.240     -104519.391          51.250  
  26682829.530      145600.375          41.250  
  22980000.000      136388.465          49.250  
  24524712.470      536737.961          48.500  
 16 09 28 13 59 36.4000000  0  9G14G22G28G32G 8G11G17G 1G 3         
  24668654.810      173622.637          45.000  
  23535055.110      305242.363          44.750  
  26437930.350     -165849.207          42.750  
  25324484.690     -179451.203          46.750  
  25858972.150     -496279.102          46.500  
  23097295.810     -104659.613          53.500  
  26682720.240      146313.094          40.750  
  22980000.000      136540.742          50.000  
  24524620.930      537357.770          50.000  
 16 09 28 13 59 36.6000000  0  9G14G22G28G32G 8G11G17G 1G 3         
  24668647.940      173813.582          48.250  
  23535014.160      305612.508          47.000  
  26437999.660     -166057.398          43.000  
  25324555.830     -179679.559          45.000  
  25859112.210     -496879.473          45.000  
  23097353.940     -104800.371          46.000  
  26682613.710      147025.270          43.250  
  22980000.000      136692.527          51.500  
  24524531.390      537977.082          52.500  
 16 09 28 13 59 36.8000000  0  9G14G22G28G32G 8G11G17G 1G 3         
  24668637.540      174004.797          40.250  
  23534970.860      305982.871          47.000  
  26438066.040     -166265.379          41.000  
  25324626.090     -179907.699          44.750  
  25859254.950     -497479.609          47.750  
  23097406.600     -104940.863          48.250  
  26682502.230      147737.723          37.750  
  22980000.000      136844.574          53.750  
  24524440.180      538596.648          46.500  
 16 09 28 13 59 37.0000000  0  9G14G22G28G32G 8G11G17G 1G 3         
  24668629.060      174196.176          43.250  
  23534928.910      306353.488          41.500  
  26438135.180     -166473.152          50.750  
  25324700.090     -180135.625          43.000  
  25859402.320     -498079.547          45.250  
  23097463.840     -105081.156          48.750  
  26682398.950      148450.383          36.500  
  22980000.000      136996.816          49.500  
  24524353.480      539216.414          46.750  
 16 09 28 13 59 37.2000000  0  9G14G22G28G32G 8G11G17G 1G 3         
  24668619.600      174387.605          43.000  
  23534884.780      306724.090          46.500  
  26438201.660     -166680.922          44.000  
  25324773.320     -180363.523          42.750  
  25859547.230     -498679.414          46.750  
  23097517.200     -105221.418          48.000  
  26682292.500      149163.105          38.500  
  22980000.000      137149.078          44.000  
  24524263.210      539836.242          51.250  
 16 09 28 13 59 37.4000000  0  9G14G22G28G32G 8G11G17G 1G 3         
  24668612.370      174579.059          48.500  
  23534847.540      307094.770          48.500  
  26438270.070     -166888.578          42.250  
  25324846.410     -180591.355          43.750  
  25859693.160     -499279.188          43.000  
  23097574.940     -105361.629          45.500  
  26682188.080      149875.855          38.500  
  22980000.000      137301.414          48.750  
  24524176.780      540456.117          50.000  
 16 09 28 13 59 37.6000000  0  9G14G22G28G32G 8G11G17G 1G 3         
  24668604.870      174770.441          47.250  
  23534809.150      307465.355          48.000  
  26438339.240     -167096.359          41.500  
  25324920.330     -180819.285          45.750  
  25859836.670     -499879.078          41.500  
  23097632.280     -105501.941          50.250  
  26682080.450      150588.512          41.500  
  22980000.000      137453.656          50.500  
  24524088.240      541075.906          47.000  
 16 09 28 13 59 37.8000000  0  9G14G22G28G32G 8G11G17G 1G 3         
  24668596.930      174961.883          43.500  
  23534768.650      307836.027          48.000  
  26438407.330     -167304.082          42.000  
  25324993.170     -181047.156          46.250  
  25859980.950     -500478.930          42.250  
  23097691.040     -105642.188          49.000  
  26681975.470      151301.309          38.000  
  22980000.000      137605.969          49.750  
  24523998.020      541695.781          53.000  
 16 09 28 13 59 38.0000000  0  9G14G22G28G32G 8G11G17G 1G 3         
  24668589.550      175153.250          44.750  
  23534726.660      308206.625          47.750  
  26438477.170     -167511.824          46.000  
  25325065.590     -181275.098          44.250  
  25860123.730     -501078.770          49.250  
  23097746.370     -105782.496          48.250  
  26681868.370      152014.016          46.000  
  22980000.000      137758.215          52.000  
  24523908.660      542315.598          49.750  
 16 09 28 13 59 38.2000000  0  9G14G22G28G32G 8G11G17G 1G 3         
  24668582.050      175344.523          47.000  
  23534683.040      308577.160          48.250  
  26438546.550     -167719.648          46.000  
  25325137.260     -181503.121          50.250  
  25860264.310     -501678.676          43.250  
  23097801.710     -105922.887          48.250  
  26681765.960      152726.672          41.500  
  22980000.000      137910.395          47.250  
  24523818.740      542935.340          50.000  
 16 09 28 13 59 38.4000000  0  9G14G22G28G32G 8G11G17G 1G 3         
  24668575.360      175535.664          43.500  
  23534639.010      308947.516          47.750  
  26438612.510     -167927.625          44.500  
  25325207.080     -181731.309          45.500  
  25860407.140     -502278.789          53.500  
  23097856.260     -106063.434          49.000  
  26681659.270      153439.180          43.000  
  22980000.000      138062.410          54.250  
  24523728.660      543554.887          45.000  
 16 09 28 13 59 38.6000000  0  9G14G22G28G32G 8G11G17G 1G 3         
  24668567.960      175726.555          41.000  
  23534595.000      309317.656          44.250  
  26438681.160     -168135.883          46.250  
  25325278.570     -181959.691          45.250  
  25860550.270     -502879.109          45.000  
  23097910.440     -106204.234          48.750  
  26681552.090      154151.430          41.000  
  22980000.000      138214.203          52.000  
  24523639.770      544174.254          49.250  
 16 09 28 13 59 38.8000000  0  9G14G22G28G32G 8G11G17G 1G 3         
  24668560.430      175917.465          44.750  
  23534554.800      309687.816          51.750  
  26438753.810     -168344.066          44.750  
  25325351.530     -182188.109          47.750  
  25860692.010     -503479.402          47.000  
  23097965.430     -106345.035          54.250  
  26681446.710      154863.785          36.250  
  22980000.000      138365.988          51.000  
  24523551.980      544793.641          44.500  
 16 09 28 13 59 39.0000000  0  9G14G22G28G32G 8G11G17G 1G 3         
  24668555.700      176108.574          43.500  
  23534516.580      310058.215          48.250  
  26438824.880     -168552.066          51.000  
  25325427.230     -182416.281          47.500  
  25860837.950     -504079.379          45.500  
  23098021.010     -106485.539          50.750  
  26681340.590      155576.238          40.250  
  22980000.000      138518.016          49.000  
  24523464.310      545413.242          50.000  
 16 09 28 13 59 39.2000000  0  9G14G22G28G32G 8G11G17G 1G 3         
  24668547.340      176299.766          42.250  
  23534473.930      310428.707          49.250  
  26438892.100     -168759.977          41.500  
  25325495.340     -182644.352          45.250  
  25860978.390     -504679.340          43.500  
  23098075.310     -106625.996          47.000  
  26681232.450      156288.871          42.750  
  22980000.000      138670.160          54.250  
  24523372.830      546032.977          45.500  
 16 09 28 13 59 39.4000000  0  9G14G22G28G32G 8G11G17G 1G 3         
  24668539.210      176491.051          45.000  
  23534432.680      310799.293          44.500  
  26438963.050     -168967.754          46.000  
  25325567.020     -182872.363          46.250  
  25861125.630     -505279.180          48.500  
  23098131.060     -106766.395          44.750  
  26681125.900      157001.617          37.750  
  22980000.000      138822.344          47.250  
  24523284.920      546652.770          45.750  
 16 09 28 13 59 39.6000000  0  9G14G22G28G32G 8G11G17G 1G 3         
  24668530.600      176682.125          43.000  
  23534389.510      311169.664          49.000  
  26439031.250     -169175.754          48.250  
  25325641.780     -183100.586          45.000  
  25861269.690     -505879.215          44.500  
  23098190.170     -106907.000          52.250  
  26681016.160      157714.141          36.500  
  22980000.000      138974.363          51.000  
  24523196.010      547272.383          49.500  
 16 09 28 13 59 39.8000000  0  9G14G22G28G32G 8G11G17G 1G 3         
  24668523.240      176872.770          48.250  
  23534347.260      311539.605          46.500  
  26439098.360     -169384.184          45.500  
  25325714.390     -183329.234          45.250  
  25861412.950     -506479.676          41.750  
  23098246.220     -107048.031          46.250  
  26680908.520      158426.262          41.500  
  22980000.000      139125.941          48.250  
  24523106.820      547891.535          44.250  
 16 09 28 13 59 40.0000000  0  9G14G22G28G32G 8G11G17G 1G 3         
  24668518.770      177063.117          49.750  
  23534306.570      311909.270          50.500  
  26439169.650     -169592.895          45.750  
  25325787.630     -183558.184          44.250  
  25861557.540     -507080.387          48.000  
  23098302.810     -107189.332          45.000  
  26680803.300      159138.125          42.250  
  22980000.000      139277.203          49.000  
  24523018.770      548510.449          48.750  
 16 09 28 13 59 40.2000000  0  9G14G22G28G32G 8G11G17G 1G 3         
  24668510.990      177253.266          45.000  
  23534266.750      312278.758          53.250  
  26439238.490     -169801.828          51.000  
  25325860.410     -183787.316          45.750  
  25861700.920     -507681.273          46.500  
  23098358.000     -107330.828          47.500  
  26680701.860      159849.719          42.000  
  22980000.000      139428.344          50.750  
  24522928.590      549129.172          44.750  
 16 09 28 13 59 40.4000000  0  9G14G22G28G32G 8G11G17G 1G 3         
  24668504.360      177443.398          43.750  
  23534225.740      312648.203          48.500  
  26439306.560     -170010.770          46.750  
  25325934.000     -184016.461          47.750  
  25861843.120     -508282.215          45.500  
  23098416.080     -107472.379          47.250  
  26680594.820      160561.371          43.000  
  22980000.000      139579.406          51.250  
  24522838.670      549747.824          47.750  
 16 09 28 13 59 40.6000000  0  9G14G22G28G32G 8G11G17G 1G 3         
  24668498.370      177633.637          46.250  
  23534185.110      313017.762          43.750  
  26439372.990     -170219.594          46.000  
  25326005.230     -184245.527          45.250  
  25861986.300     -508883.023          41.500  
  23098472.550     -107613.832          51.000  
  26680486.820      161273.082          43.000  
  22980000.000      139730.590          45.500  
  24522748.480      550366.617          51.500  
 16 09 28 13 59 40.8000000  0  9G14G22G28G32G 8G11G17G 1G 3         
  24668489.040      177823.836          43.250  
  23534143.230      313387.316          49.500  
  26439439.710     -170428.422          42.250  
  25326074.720     -184474.562          47.750  
  25862129.090     -509483.844          47.000  
  23098527.790     -107755.277          44.000  
  26680380.150      161984.852          39.000  
  22980000.000      139881.773          47.250  
  24522660.950      550985.441          50.500  
 16 09 28 13 59 41.0000000  0  9G14G22G28G32G 8G11G17G 1G 3         
  24668480.730      178013.695          44.000  
  23534100.150      313756.512          52.500  
  26439508.060     -170637.602          45.250  
  25326146.250     -184704.000          40.500  
  25862272.250     -510084.973          42.750  
  23098579.570     -107897.051          44.000  
  26680272.970      162696.285          41.750  
  22980000.000      140032.621          46.250  
  24522571.520      551603.906          51.000  
 16 09 28 13 59 41.2000000  0  9G14G22G28G32G 8G11G17G 1G 3         
  24668468.650      178203.684          42.750  
  23534055.460      314125.844          43.750  
  26439579.200     -170846.656          49.250  
  25326221.390     -184933.273          46.500  
  25862411.990     -510686.004          44.750  
  23098632.340     -108038.738          46.000  
  26680165.980      163407.809          40.250  
  22980000.000      140183.547          52.000  
  24522480.320      552222.504          52.500  
 16 09 28 13 59 41.4000000  0  9G14G22G28G32G 8G11G17G 1G 3         
  24668463.350      178393.949          44.750  
  23534015.640      314495.461          43.250  
  26439649.840     -171055.457          43.250  
  25326293.120     -185162.324          41.500  
  25862553.620     -511286.711          44.000  
  23098688.280     -108180.113          47.750  
  26680060.500      164119.691          40.000  
  22980000.000      140334.789          48.500  
  24522393.020      552841.387          46.000  
 16 09 28 13 59 41.6000000  0  9G14G22G28G32G 8G11G17G 1G 3         
  24668457.490      178584.207          43.750  
  23533975.800      314865.129          51.750  
  26439719.330     -171264.172          45.250  
  25326366.900     -185391.320          47.750  
  25862692.980     -511887.398          44.750  
  23098744.630     -108321.496          46.750  
  26679954.850      164831.574          41.750  
  22980000.000      140486.059          51.500  
  24522305.260      553460.309          48.500  
 16 09 28 13 59 41.8000000  0  9G14G22G28G32G 8G11G17G 1G 3         
  24668451.100      178774.402          47.500  
  23533935.440      315234.672          49.500  
  26439787.160     -171473.043          47.000  
  25326439.580     -185620.418          41.750  
  25862833.850     -512488.203          42.750  
  23098803.460     -108462.988          52.000  
  26679851.080      165543.309          40.250  
  22980000.000      140637.219          53.750  
  24522216.430      554079.086          51.250  
 16 09 28 13 59 42.0000000  0  9G14G22G28G32G 8G11G17G 1G 3         
  24668442.390      178964.406          43.750  
  23533893.030      315604.043          48.000  
  26439856.100     -171682.070          48.750  
  25326512.230     -185849.684          49.000  
  25862977.680     -513089.113          42.750  
  23098860.950     -108604.648          47.250  
  26679743.910      166254.934          41.750  
  22980000.000      140788.211          53.750  
  24522127.550      554697.746          49.750  
 16 09 28 13 59 42.2000000  0  9G14G22G28G32G 8G11G17G 1G 3         
  24668434.490      179152.840          42.750  
  23533850.630      315971.898          47.000  
  26439922.990     -171892.613          39.000  
  25326585.100     -186080.527          43.750  
  25863122.650     -513691.609          47.000  
  23098916.310     -108747.875          49.500  
  26679638.370      166965.004          40.250  
  22980000.000      140937.656          48.000  
  24522038.140      555314.848          45.750  
 16 09 28 13 59 42.4000000  0  9G14G22G28G32G 8G11G17G 1G 3         
  24668423.110      179339.480          47.750  
  23533807.470      316337.922          48.000  
  26439988.580     -172105.008          43.500  
  25326654.520     -186313.152          48.500  
  25863263.370     -514295.832          40.750  
  23098970.940     -108892.879          46.250  
  26679531.230      167673.336          38.750  
  22980000.000      141085.316          48.000  
  24521948.530      555930.156          47.250  
 16 09 28 13 59 42.6000000  0  9G14G22G28G32G 8G11G17G 1G 3         
  24668413.300      179525.863          39.750  
  23533763.830      316703.711          47.250  
  26440055.420     -172317.582          44.250  
  25326724.280     -186546.008          45.500  
  25863408.800     -514900.371          43.750  
  23099026.630     -109038.160          42.750  
  26679426.350      168381.328          43.500  
  22980000.000      141232.711          51.750  
  24521857.950      556545.234          48.000  
 16 09 28 13 59 42.8000000  0  9G14G22G28G32G 8G11G17G 1G 3         
  24668407.540      179711.945          46.250  
  23533722.700      317069.250          48.250  
  26440123.770     -172530.473          48.000  
  25326796.770     -186779.184          45.750  
  25863553.010     -515505.125          43.500  
  23099083.010     -109183.695          47.250  
  26679321.180      169089.148          42.250  
  22980000.000      141379.828          49.500  
  24521769.860      557159.996          48.250  
 16 09 28 13 59 43.0000000  0  9G14G22G28G32G 8G11G17G 1G 3         
  24668404.110      179898.707          43.750  
  23533683.960      317435.426          42.500  
  26440195.840     -172742.680          43.500  
  25326873.260     -187011.664          49.000  
  25863697.950     -516109.195          47.250  
  23099139.350     -109328.582          51.000  
  26679217.930      169797.547          40.250  
  22980000.000      141527.605          49.000  
  24521682.050      557775.477          48.250  
 16 09 28 13 59 43.2000000  0  9G14G22G28G32G 8G11G17G 1G 3         
  24668400.490      180086.598          44.000  
  23533641.440      317802.777          46.000  
  26440267.600     -172953.777          44.500  
  25326947.250     -187243.059          43.500  
  25863845.720     -516712.160          46.250  
  23099192.700     -109472.328          47.500  
  26679112.340      170507.109          40.250  
  22980000.000      141676.535          46.500  
  24521592.370      558392.109          44.500  
 16 09 28 13 59 43.4000000  0  9G14G22G28G32G 8G11G17G 1G 3         
  24668395.640      180276.035          45.000  
  23533603.150      318171.684          51.250  
  26440334.730     -173163.238          45.250  
  25327018.110     -187472.859          49.750  
  25863989.350     -517313.504          42.250  
  23099247.840     -109614.492          49.000  
  26679005.540      171218.305          44.000  
  22980000.000      141827.043          54.500  
  24521505.120      559010.312          47.750  
 16 09 28 13 59 43.6000000  0  9G14G22G28G32G 8G11G17G 1G 3         
  24668388.660      180464.859          40.750  
  23533561.970      318539.906          46.250  
  26440406.060     -173373.426          42.000  
  25327092.000     -187703.316          45.750  
  25864133.700     -517915.520          44.000  
  23099306.370     -109757.367          52.500  
  26678900.020      171928.816          40.500  
  22980000.000      141976.875          48.500  
  24521417.750      559627.820          49.500  
 16 09 28 13 59 43.8000000  0  9G14G22G28G32G 8G11G17G 1G 3         
  24668381.000      180653.547          45.750  
  23533521.050      318908.105          49.500  
  26440476.700     -173583.652          44.250  
  25327164.940     -187933.859          40.000  
  25864276.390     -518517.559          43.500  
  23099363.520     -109900.297          47.500  
  26678794.480      172639.305          44.750  
  22980000.000      142126.641          48.750  
  24521328.840      560245.305          48.000  
 16 09 28 13 59 44.0000000  0  9G14G22G28G32G 8G11G17G 1G 3         
  24668372.050      180842.281          44.750  
  23533479.690      319276.312          42.500  
  26440546.000     -173793.887          46.750  
  25327238.330     -188164.355          40.500  
  25864417.510     -519119.645          46.000  
  23099419.690     -110043.188          52.000  
  26678685.940      173349.801          41.000  
  22980000.000      142276.426          50.000  
  24521237.940      560862.773          48.250  
 16 09 28 13 59 44.2000000  0  9G14G22G28G32G 8G11G17G 1G 3         
  24668361.130      181031.168          44.000  
  23533435.370      319644.676          43.750  
  26440613.130     -174003.945          46.750  
  25327309.110     -188394.730          43.000  
  25864560.570     -519721.527          45.750  
  23099473.350     -110185.934          51.000  
  26678573.960      174060.449          47.500  
  22980000.000      142426.387          46.250  
  24521146.080      561480.449          44.500  
 16 09 28 13 59 44.4000000  0  9G14G22G28G32G 8G11G17G 1G 3         
  24668351.900      181219.754          47.000  
  23533391.040      320012.680          48.500  
  26440680.350     -174214.355          43.500  
  25327379.780     -188625.441          44.250  
  25864702.020     -520323.703          50.250  
  23099526.540     -110329.008          47.250  
  26678463.960      174770.773          45.250  
  22980000.000      142576.012          47.000  
  24521054.360      562097.770          49.500  
 16 09 28 13 59 44.6000000  0  9G14G22G28G32G 8G11G17G 1G 3         
  24668343.010      181407.625          45.000  
  23533347.910      320380.012          48.250  
  26440749.100     -174425.438          43.250  
  25327454.910     -188856.805          47.000  
  25864844.590     -520926.594          40.500  
  23099582.590     -110472.820          48.500  
  26678357.080      175480.398          43.250  
  22980000.000      142724.926          47.500  
  24520964.690      562714.426          48.250  
 16 09 28 13 59 44.8000000  0  9G14G22G28G32G 8G11G17G 1G 3         
  24668337.130      181595.348          41.000  
  23533306.980      320747.277          49.500  
  26440817.120     -174636.586          40.250  
  25327527.710     -189088.312          42.750  
  25864986.150     -521529.562          44.750  
  23099638.940     -110616.691          47.500  
  26678248.240      176189.996          43.500  
  22980000.000      142873.754          46.500  
  24520877.020      563330.949          44.750  
 16 09 28 13 59 45.0000000  0  9G14G22G28G32G 8G11G17G 1G 3         
  24668331.550      181783.652          42.000  
  23533264.910      321115.090          45.250  
  26440882.860     -174847.172          42.000  
  25327597.840     -189319.238          39.500  
  25865127.680     -522131.957          39.000  
  23099695.300     -110760.008          48.750  
  26678140.290      176900.121          38.500  
  22980000.000      143023.172          44.250  
  24520787.830      563948.086          46.000  
 16 09 28 13 59 45.2000000  0  9G14G22G28G32G 8G11G17G 1G 3         
  24668325.510      181972.129          46.500  
  23533221.370      321483.016          48.750  
  26440948.870     -175057.672          45.500  
  25327669.980     -189550.051          42.750  
  25865272.010     -522734.207          46.500  
  23099748.370     -110903.211          49.500  
  26678035.260      177610.336          40.750  
  22980000.000      143172.684          48.500  
  24520698.470      564565.340          47.000  
 16 09 28 13 59 45.4000000  0  9G14G22G28G32G 8G11G17G 1G 3         
  24668320.850      182161.484          46.500  
  23533180.140      321851.914          47.750  
  26441019.870     -175267.199          46.250  
  25327743.990     -189779.887          40.750  
  25865415.730     -523335.504          46.250  
  23099806.370     -111045.461          44.000  
  26677929.340      178321.602          42.000  
  22980000.000      143323.156          46.500  
  24520611.930      565183.555          49.250  
 16 09 28 13 59 45.6000000  0  9G14G22G28G32G 8G11G17G 1G 3         
  24668310.350      182349.691          43.750  
  23533137.800      322219.648          48.500  
  26441089.130     -175477.910          48.000  
  25327816.900     -190010.949          43.500  
  25865560.290     -523937.969          46.750  
  23099859.840     -111188.895          44.000  
  26677823.310      179031.672          43.000  
  22980000.000      143472.477          47.500  
  24520524.400      565800.598          46.750  
 16 09 28 13 59 45.8000000  0  9G14G22G28G32G 8G11G17G 1G 3         
  24668305.080      182537.320          47.500  
  23533097.910      322586.812          48.250  
  26441159.350     -175689.121          47.750  
  25327886.210     -190242.559          39.000  
  25865703.590     -524540.996          41.500  
  23099917.580     -111332.871          48.000  
  26677716.530      179741.199          46.000  
  22980000.000      143621.227          52.500  
  24520437.550      566417.113          49.500  
 16 09 28 13 59 46.0000000  0  9G14G22G28G32G 8G11G17G 1G 3         
  24668297.820      182724.609          45.000  
  23533058.060      322953.633          49.250  
  26441228.330     -175900.762          50.250  
  25327956.180     -190474.504          45.250  
  25865847.710     -525144.293          45.000  
  23099972.920     -111477.238          46.500  
  26677608.250      180450.414          45.750  
  22980000.000      143769.629          50.750  
  24520349.500      567033.250          49.750  
 16 09 28 13 59 46.2000000  0  9G14G22G28G32G 8G11G17G 1G 3         
  24668289.950      182908.469          45.250  
  23533017.400      323317.055          49.250  
  26441298.730     -176115.773          41.750  
  25328027.830     -190709.891          42.750  
  25865992.870     -525751.047          41.750  
  23100030.220     -111624.984          46.750  
  26677501.600      181156.168          43.250  
  22980000.000      143914.598          49.250  
  24520261.440      567646.016          47.250  
 16 09 28 13 59 46.4000000  0  9G14G22G28G32G 8G11G17G 1G 3         
  24668282.080      183093.129          44.250  
  23532975.470      323681.281          49.750  
  26441365.900     -176330.027          46.000  
  25328096.690     -190944.461          45.750  
  25866135.610     -526356.980          44.750  
  23100083.200     -111771.941          44.750  
  26677394.970      181862.695          43.000  
  22980000.000      144060.371          48.500  
  24520168.170      568259.555          46.750  
 16 09 28 13 59 46.6000000  0  9G14G22G28G32G 8G11G17G 1G 3         
  24668276.300      183278.434          40.750  
  23532932.680      324046.168          46.250  
  26441429.750     -176543.559          49.750  
  25328167.260     -191178.387          47.250  
  25866278.300     -526962.203          47.500  
  23100139.710     -111918.277          48.500  
  26677288.580      182569.984          45.500  
  22980000.000      144206.836          50.500  
  24520076.940      568873.773          48.000  
 16 09 28 13 59 46.8000000  0  9G14G22G28G32G 8G11G17G 1G 3         
  24668268.950      183465.309          44.000  
  23532887.590      324412.617          42.250  
  26441495.480     -176755.562          46.250  
  25328238.720     -191410.758          41.500  
  25866422.210     -527565.875          40.500  
  23100195.280     -112063.012          43.500  
  26677184.420      183278.766          40.500  
  22980000.000      144354.832          47.500  
  24519988.190      569489.566          45.750  
 16 09 28 13 59 47.0000000  0  9G14G22G28G32G 8G11G17G 1G 3         
  24668263.540      183654.457          52.500  
  23532845.550      324781.309          48.250  
  26441565.930     -176965.305          46.250  
  25328314.850     -191640.863          47.750  
  25866565.560     -528167.332          45.500  
  23100253.600     -112205.516          49.250  
  26677078.380      183989.859          45.500  
  22980000.000      144505.098          50.000  
  24519899.320      570107.598          49.250  
 16 09 28 13 59 47.2000000  0  9G14G22G28G32G 8G11G17G 1G 3         
  24668254.580      183844.984          43.500  
  23532808.690      325151.418          45.250  
  26441636.270     -177173.617          47.750  
  25328391.830     -191869.539          43.000  
  25866709.830     -528767.340          44.750  
  23100309.200     -112346.574          47.500  
  26676971.720      184702.395          42.500  
  22980000.000      144656.797          43.750  
  24519811.890      570727.070          50.250  
 16 09 28 13 59 47.4000000  0  9G14G22G28G32G 8G11G17G 1G 3         
  24668247.210      184035.645          42.500  
  23532768.820      325521.676          44.250  
  26441706.940     -177381.840          44.500  
  25328466.720     -192098.094          44.250  
  25866852.660     -529367.211          44.000  
  23100365.300     -112487.559          48.000  
  26676865.100      185414.996          41.750  
  22980000.000      144808.594          48.750  
  24519723.780      571346.648          44.000  
 16 09 28 13 59 47.6000000  0  9G14G22G28G32G 8G11G17G 1G 3         
  24668240.530      184225.184          40.750  
  23532728.820      325890.797          50.000  
  26441777.410     -177591.148          44.250  
  25328541.620     -192327.805          44.750  
  25866996.600     -529968.168          49.750  
  23100419.080     -112629.645          45.250  
  26676759.610      186126.500          40.500  
  22980000.000      144959.281          47.250  
  24519636.430      571965.121          46.750  
 16 09 28 13 59 47.8000000  0  9G14G22G28G32G 8G11G17G 1G 3         
  24668234.000      184415.664          43.750  
  23532685.490      326260.918          50.500  
  26441845.990     -177799.480          46.000  
  25328615.470     -192556.500          44.000  
  25867136.590     -530568.145          46.000  
  23100475.030     -112770.770          50.250  
  26676652.030      186839.039          40.000  
  22980000.000      145110.969          49.750  
  24519547.220      572584.598          53.500  
 16 09 28 13 59 48.0000000  0  9G14G22G28G32G 8G11G17G 1G 3         
  24668227.300      184606.184          39.750  
  23532642.460      326631.055          48.500  
  26441913.690     -178007.801          42.750  
  25328687.140     -192785.254          37.750  
  25867278.810     -531168.109          42.500  
  23100530.140     -112911.867          49.750  
  26676545.360      187551.574          38.000  
  22980000.000      145262.660          49.000  
  24519458.840      573204.078          48.250  
 16 09 28 13 59 48.2000000  0  9G14G22G28G32G 8G11G17G 1G 3         
  24668222.850      184795.031          46.000  
  23532601.300      326999.539          43.000  
  26441980.930     -178217.758          43.750  
  25328757.010     -193015.574          42.750  
  25867421.850     -531769.711          43.500  
  23100584.930     -113054.594          42.500  
  26676438.130      188262.488          44.250  
  22980000.000      145412.711          50.000  
  24519368.780      573821.941          46.500  
 16 09 28 13 59 48.4000000  0  9G14G22G28G32G 8G11G17G 1G 3         
  24668215.490      184983.809          47.250  
  23532557.130      327367.953          50.750  
  26442047.990     -178427.832          42.000  
  25328827.050     -193246.004          42.500  
  25867566.650     -532371.332          43.750  
  23100639.950     -113197.445          47.500  
  26676328.560      188973.332          47.250  
  22980000.000      145562.676          51.000  
  24519276.950      574439.715          46.750  
 16 09 28 13 59 48.6000000  0  9G14G22G28G32G 8G11G17G 1G 3         
  24668206.950      185173.730          46.000  
  23532515.550      327737.496          48.250  
  26442119.050     -178636.727          44.750  
  25328899.580     -193475.316          41.000  
  25867709.250     -532971.875          44.500  
  23100698.180     -113339.152          46.250  
  26676225.010      189685.293          42.250  
  22980000.000      145713.770          43.750  
  24519189.280      575058.609          52.000  
 16 09 28 13 59 48.8000000  0  9G14G22G28G32G 8G11G17G 1G 3         
  24668195.750      185363.676          44.250  
  23532475.570      328107.078          47.750  
  26442188.480     -178845.594          46.250  
  25328972.260     -193704.574          41.250  
  25867853.090     -533572.398          46.750  
  23100752.560     -113480.812          45.500  
  26676116.920      190397.309          40.500  
  22980000.000      145864.891          49.750  
  24519101.190      575677.555          49.000  
 16 09 28 13 59 49.0000000  0  9G14G22G28G32G 8G11G17G 1G 3         
  24668188.140      185553.582          44.250  
  23532436.990      328476.652          47.500  
  26442257.850     -179054.449          47.000  
  25329045.040     -193933.887          43.500  
  25867997.950     -534172.855          43.250  
  23100810.110     -113622.516          46.000  
  26676010.670      191109.367          40.750  
  22980000.000      146016.023          48.000  
  24519011.270      576296.496          48.250  
 16 09 28 13 59 49.2000000  0  9G14G22G28G32G 8G11G17G 1G 3         
  24668183.220      185744.004          44.500  
  23532395.210      328846.715          46.500  
  26442325.410     -179262.855          46.250  
  25329118.380     -194162.699          46.750  
  25868143.620     -534772.816          44.250  
  23100867.750     -113763.707          49.750  
  26675902.770      191821.867          47.250  
  22980000.000      146167.637          53.000  
  24518923.850      576915.941          49.750  
 16 09 28 13 59 49.4000000  0  9G14G22G28G32G 8G11G17G 1G 3         
  24668178.720      185934.008          48.000  
  23532352.740      329216.406          46.250  
  26442394.100     -179471.676          49.000  
  25329191.470     -194391.961          43.500  
  25868286.230     -535373.113          44.750  
  23100925.630     -113905.289          46.250  
  26675797.970      192533.871          42.250  
  22980000.000      146318.824          46.250  
  24518836.200      577535.023          49.750  
 16 09 28 13 59 49.6000000  0  9G14G22G28G32G 8G11G17G 1G 3         
  24668169.840      186121.660          44.500  
  23532310.720      329583.812          47.250  
  26442460.160     -179682.781          43.000  
  25329263.550     -194623.586          39.000  
  25868422.830     -535975.684          44.500  
  23100981.500     -114049.195          46.500  
  26675687.510      193243.656          37.250  
  22980000.000      146467.734          48.000  
  24518744.670      578151.816          46.250  
 16 09 28 13 59 49.8000000  0  9G14G22G28G32G 8G11G17G 1G 3         
  24668159.820      186310.930          49.000  
  23532269.190      329952.719          48.500  
  26442524.750     -179892.355          47.250  
  25329335.200     -194853.500          48.250  
  25868558.380     -536576.742          48.750  
  23101036.400     -114191.539          44.500  
  26675575.840      193954.926          37.000  
  22980000.000      146618.188          50.750  
  24518652.250      578770.082          48.750  
 16 09 28 13 59 50.0000000  0  9G14G22G28G32G 8G11G17G 1G 3         
  24668151.290      186500.512          39.750  
  23532226.120      330321.996          47.500  
  26442594.560     -180101.547          48.000  
  25329405.820     -195083.039          46.000  
  25868696.100     -537177.562          42.000  
  23101088.910     -114333.574          50.750  
  26675466.050      194666.824          36.250  
  22980000.000      146769.027          48.500  
  24518561.390      579388.730          51.500  
 16 09 28 13 59 50.2000000  0  9G14G22G28G32G 8G11G17G 1G 3         
  24668144.200      186689.730          44.750  
  23532184.170      330690.918          52.250  
  26442664.380     -180311.055          45.250  
  25329477.230     -195313.039          41.500  
  25868842.030     -537778.668          42.000  
  23101146.040     -114475.949          53.500  
  26675360.470      195378.242          44.000  
  22980000.000      146919.484          50.000  
  24518472.600      580007.059          50.250  
 16 09 28 13 59 50.4000000  0  9G14G22G28G32G 8G11G17G 1G 3         
  24668135.360      186878.816          48.000  
  23532143.440      331059.559          49.750  
  26442734.430     -180520.965          49.000  
  25329549.890     -195543.176          44.500  
  25868990.410     -538379.949          41.750  
  23101201.500     -114618.582          47.500  
  26675253.430      196089.301          39.000  
  22980000.000      147069.680          48.500  
  24518384.060      580625.035          47.500  
 16 09 28 13 59 50.6000000  0  9G14G22G28G32G 8G11G17G 1G 3         
  24668127.940      187067.055          46.750  
  23532101.800      331427.375          48.250  
  26442804.600     -180731.746          45.500  
  25329623.310     -195774.188          48.500  
  25869133.210     -538982.090          45.750  
  23101256.680     -114762.012          50.250  
  26675146.990      196799.469          45.000  
  22980000.000      147219.062          50.750  
  24518298.890      581242.180          48.750  
 16 09 28 13 59 50.8000000  0  9G14G22G28G32G 8G11G17G 1G 3         
  24668123.730      187255.309          46.500  
  23532061.580      331795.324          49.500  
  26442874.610     -180942.277          43.750  
  25329697.730     -196005.094          44.000  
  25869280.610     -539584.121          41.250  
  23101312.600     -114905.359          53.000  
  26675043.090      197509.879          45.000  
  22980000.000      147368.562          53.500  
  24518213.890      581859.523          50.250  
 16 09 28 13 59 51.0000000  0  9G14G22G28G32G 8G11G17G 1G 3         
  24668117.120      187443.938          40.000  
  23532019.440      332163.648          52.000  
  26442940.670     -181152.422          45.750  
  25329770.270     -196235.699          46.500  
  25869421.960     -540185.770          42.250  
  23101370.160     -115048.359          49.500  
  26674935.730      198220.742          39.250  
  22980000.000      147518.414          49.000  
  24518124.230      582477.270          45.750  
 16 09 28 13 59 51.2000000  0  9G14G22G28G32G 8G11G17G 1G 3         
  24668111.520      187632.797          50.750  
  23531979.980      332532.332          50.250  
  26443009.970     -181362.211          46.500  
  25329846.010     -196466.031          51.750  
  25869568.260     -540787.043          45.500  
  23101426.280     -115191.035          45.250  
  26674830.720      198931.824          41.750  
  22980000.000      147668.605          50.000  
  24518036.560      583095.367          48.750  
 16 09 28 13 59 51.4000000  0  9G14G22G28G32G 8G11G17G 1G 3         
  24668106.230      187821.031          43.250  
  23531941.490      332900.676          48.000  
  26443079.870     -181572.176          47.500  
  25329920.610     -196697.039          42.750  
  25869711.590     -541388.707          39.250  
  23101484.190     -115334.137          46.000  
  26674722.880      199642.777          40.500  
  22980000.000      147818.367          48.250  
  24517946.430      583713.254          45.250  
 16 09 28 13 59 51.6000000  0  9G14G22G28G32G 8G11G17G 1G 3         
  24668095.660      188007.734          44.750  
  23531900.220      333266.898          46.250  
  26443148.500     -181784.836          46.750  
  25329993.410     -196929.777          40.750  
  25869856.130     -541992.043          46.750  
  23101537.430     -115479.152          46.500  
  26674617.910      200350.938          41.250  
  22980000.000      147966.027          50.000  
  24517855.960      584328.828          50.250  
 16 09 28 13 59 51.8000000  0  9G14G22G28G32G 8G11G17G 1G 3         
  24668088.220      188194.324          46.250  
  23531859.330      333632.820          44.750  
  26443215.670     -181997.730          41.750  
  25330064.660     -197162.398          44.500  
  25869999.440     -542595.902          41.250  
  23101592.350     -115624.457          46.250  
  26674512.300      201059.086          37.250  
  22980000.000      148113.492          51.000  
  24517767.560      584943.953          45.000  
 16 09 28 13 59 52.0000000  0  9G14G22G28G32G 8G11G17G 1G 3         
  24668081.160      188383.508          46.750  
  23531815.430      334001.309          49.250  
  26443280.410     -182207.793          44.000  
  25330134.860     -197392.148          46.500  
  25870141.290     -543197.438          42.250  
  23101647.910     -115767.160          48.750  
  26674405.210      201770.434          43.250  
  22980000.000      148263.766          50.250  
  24517678.790      585561.758          44.250  
 16 09 28 13 59 52.2000000  0  9G14G22G28G32G 8G11G17G 1G 3         
  24668074.630      188573.320          46.750  
  23531775.340      334371.246          48.000  
  26443352.780     -182415.926          47.250  
  25330206.550     -197621.348          46.750  
  25870285.990     -543797.844          39.500  
  23101703.650     -115908.801          47.000  
  26674302.870      202483.449          36.500  
  22980000.000      148415.246          50.500  
  24517588.310      586181.160          51.750  
 16 09 28 13 59 52.4000000  0  9G14G22G28G32G 8G11G17G 1G 3         
  24668065.000      188761.238          43.000  
  23531733.130      334739.809          49.250  
  26443420.870     -182625.254          47.000  
  25330278.770     -197852.543          45.500  
  25870429.010     -544399.574          43.750  
  23101758.740     -116051.953          46.000  
  26674197.570      203194.957          42.250  
  22980000.000      148565.152          46.000  
  24517497.850      586799.441          51.000  
 16 09 28 13 59 52.6000000  0  9G14G22G28G32G 8G11G17G 1G 3         
  24668057.960      188947.344          46.250  
  23531689.650      335105.879          46.750  
  26443487.110     -182837.758          42.750  
  25330350.820     -198085.898          46.750  
  25870569.500     -545003.137          48.500  
  23101811.400     -116197.230          48.250  
  26674088.260      203903.129          43.000  
  22980000.000      148712.602          46.000  
  24517410.040      587415.043          45.750  
 16 09 28 13 59 52.8000000  0  9G14G22G28G32G 8G11G17G 1G 3         
  24668052.900      189134.898          47.000  
  23531647.960      335472.582          47.500  
  26443552.410     -183050.227          44.750  
  25330423.560     -198317.672          46.750  
  25870713.130     -545605.918          46.750  
  23101867.160     -116341.652          48.000  
  26673983.200      204611.695          41.500  
  22980000.000      148860.824          45.000  
  24517320.700      588030.906          50.500  
 16 09 28 13 59 53.0000000  0  9G14G22G28G32G 8G11G17G 1G 3         
  24668045.160      189324.230          47.750  
  23531607.660      335840.852          50.250  
  26443619.050     -183260.703          46.500  
  25330496.390     -198547.281          48.000  
  25870857.200     -546207.516          43.750  
  23101924.100     -116484.492          49.750  
  26673877.360      205322.852          39.500  
  22980000.000      149010.930          52.500  
  24517231.810      588648.336          47.000  
 16 09 28 13 59 53.2000000  0  9G14G22G28G32G 8G11G17G 1G 3         
  24668037.130      189513.426          42.750  
  23531565.680      336210.137          42.500  
  26443689.340     -183469.578          43.250  
  25330567.350     -198777.020          44.500  
  25870997.520     -546808.609          37.250  
  23101980.880     -116626.781          46.250  
  26673771.820      206035.141          41.250  
  22980000.000      149161.742          50.250  
  24517143.120      589267.105          49.000  
 16 09 28 13 59 53.4000000  0  9G14G22G28G32G 8G11G17G 1G 3         
  24668029.220      189701.715          44.000  
  23531523.450      336578.848          49.500  
  26443760.780     -183678.922          46.750  
  25330640.690     -199007.938          52.000  
  25871142.130     -547409.938          45.000  
  23102039.410     -116769.676          46.250  
  26673663.930      206746.688          42.750  
  22980000.000      149311.883          54.250  
  24517057.300      589885.496          49.000  
 16 09 28 13 59 53.6000000  0  9G14G22G28G32G 8G11G17G 1G 3         
  24668023.500      189889.340          48.750  
  23531484.920      336946.797          47.250  
  26443830.760     -183889.379          44.000  
  25330710.800     -199239.703          43.750  
  25871286.060     -548011.777          43.000  
  23102098.040     -116913.270          45.750  
  26673553.890      207457.047          39.250  
  22980000.000      149461.129          50.500  
  24516969.110      590503.039          51.750  
 16 09 28 13 59 53.8000000  0  9G14G22G28G32G 8G11G17G 1G 3         
  24668013.190      190077.309          49.000  
  23531438.900      337314.277          50.250  
  26443897.760     -184100.770          46.250  
  25330781.160     -199471.086          45.000  
  25871426.670     -548613.820          45.500  
  23102148.640     -117057.066          49.000  
  26673447.190      208166.590          45.000  
  22980000.000      149610.078          49.500  
  24516874.410      591119.840          50.250  
 16 09 28 13 59 54.0000000  0  9G14G22G28G32G 8G11G17G 1G 3         
  24668007.060      190266.621          44.500  
  23531397.110      337682.668          46.750  
  26443966.940     -184311.289          47.000  
  25330853.270     -199700.816          48.000  
  25871572.120     -549215.172          40.750  
  23102205.920     -117199.875          54.250  
  26673340.470      208877.480          40.250  
  22980000.000      149760.164          49.750  
  24516786.740      591737.449          47.250  
 16 09 28 13 59 54.2000000  0  9G14G22G28G32G 8G11G17G 1G 3         
  24667997.130      190455.902          44.500  
  23531355.650      338051.797          45.250  
  26444036.670     -184520.543          45.000  
  25330925.250     -199930.496          42.500  
  25871716.120     -549816.176          40.750  
  23102258.550     -117342.211          46.750  
  26673234.340      209589.570          45.750  
  22980000.000      149910.898          51.000  
  24516695.890      592355.988          48.750  
 16 09 28 13 59 54.4000000  0  9G14G22G28G32G 8G11G17G 1G 3         
  24667991.480      190644.871          48.000  
  23531316.440      338421.156          49.500  
  26444106.100     -184729.215          43.750  
  25330998.580     -200160.648          46.500  
  25871859.210     -550416.895          41.500  
  23102317.000     -117484.449          48.000  
  26673128.890      210301.859          46.500  
  22980000.000      150061.695          54.500  
  24516610.470      592974.992          52.000  
 16 09 28 13 59 54.6000000  0  9G14G22G28G32G 8G11G17G 1G 3         
  24667984.570      190832.059          45.750  
  23531276.420      338788.773          49.750  
  26444173.620     -184939.988          47.000  
  25331072.040     -200392.855          46.750  
  25872002.080     -551019.004          49.250  
  23102371.450     -117628.418          50.250  
  26673017.470      211011.855          39.750  
  22980000.000      150210.598          48.250  
  24516522.120      593592.277          45.000  
 16 09 28 13 59 54.8000000  0  9G14G22G28G32G 8G11G17G 1G 3         
  24667976.140      191018.734          45.000  
  23531234.420      339155.105          49.250  
  26444243.560     -185152.492          47.500  
  25331146.140     -200625.613          44.000  
  25872140.770     -551622.109          44.750  
  23102425.980     -117773.426          48.250  
  26672910.900      211720.254          40.500  
  22980000.000      150358.328          47.000  
  24516432.360      594208.004          46.750  
 16 09 28 13 59 55.0000000  0  9G14G22G28G32G 8G11G17G 1G 3         
  24667968.790      191207.230          49.750  
  23531189.850      339522.809          43.250  
  26444310.170     -185363.707          41.250  
  25331218.900     -200856.121          48.000  
  25872281.370     -552224.117          45.250  
  23102479.450     -117916.973          47.250  
  26672804.750      212430.445          41.750  
  22980000.000      150507.723          46.000  
  24516341.510      594824.914          46.250  
 16 09 28 13 59 55.2000000  0  9G14G22G28G32G 8G11G17G 1G 3         
  24667959.580      191396.723          51.750  
  23531146.660      339892.027          50.000  
  26444378.880     -185572.926          43.500  
  25331293.450     -201085.609          52.500  
  25872423.530     -552825.000          39.500  
  23102534.940     -118059.211          52.000  
  26672697.010      213142.609          42.000  
  22980000.000      150658.527          50.250  
  24516252.940      595443.492          49.000  
 16 09 28 13 59 55.4000000  0  9G14G22G28G32G 8G11G17G 1G 3         
  24667951.900      191586.023          42.000  
  23531107.660      340261.879          48.250  
  26444449.120     -185780.996          42.000  
  25331364.730     -201315.320          42.750  
  25872570.460     -553425.328          47.250  
  23102592.460     -118201.062          45.750  
  26672591.020      213855.695          39.000  
  22980000.000      150809.809          48.500  
  24516163.610      596063.043          46.750  
 16 09 28 13 59 55.6000000  0  9G14G22G28G32G 8G11G17G 1G 3         
  24667944.500      191774.707          45.250  
  23531064.130      340631.062          49.500  
  26444514.930     -185989.984          42.250  
  25331437.610     -201545.914          40.250  
  25872712.680     -554026.035          44.250  
  23102651.090     -118343.582          43.250  
  26672484.120      214567.562          44.500  
  22980000.000      150960.316          51.500  
  24516074.230      596681.898          48.750  
 16 09 28 13 59 55.8000000  0  9G14G22G28G32G 8G11G17G 1G 3         
  24667936.390      191963.254          42.250  
  23531021.930      340999.352          48.000  
  26444580.910     -186200.598          44.000  
  25331511.750     -201776.797          44.750  
  25872855.510     -554627.176          45.000  
  23102705.530     -118486.672          48.000  
  26672380.320      215277.938          44.000  
  22980000.000      151110.000          49.750  
  24515984.010      597299.629          46.250  
 16 09 28 13 59 56.0000000  0  9G14G22G28G32G 8G11G17G 1G 3         
  24667930.120      192152.258          47.000  
  23530981.290      341367.594          47.500  
  26444649.030     -186411.363          46.750  
  25331584.610     -202006.934          44.000  
  25872998.170     -555228.480          49.500  
  23102761.670     -118629.672          49.000  
  26672275.530      215988.453          42.250  
  22980000.000      151259.812          46.750  
  24515895.870      597917.082          48.000  
 16 09 28 13 59 56.2000000  0  9G14G22G28G32G 8G11G17G 1G 3         
  24667922.920      192341.133          44.500  
  23530941.490      341735.992          45.250  
  26444718.260     -186621.508          50.000  
  25331655.660     -202236.934          46.000  
  25873140.670     -555830.070          42.250  
  23102817.480     -118772.664          50.250  
  26672171.480      216699.918          42.250  
  22980000.000      151409.941          46.250  
  24515806.840      598534.824          49.500  
 16 09 28 13 59 56.4000000  0  9G14G22G28G32G 8G11G17G 1G 3         
  24667914.140      192529.773          43.500  
  23530898.370      342105.164          45.750  
  26444788.770     -186830.234          46.750  
  25331726.180     -202467.242          45.250  
  25873283.320     -556431.070          41.250  
  23102873.400     -118915.234          48.250  
  26672061.860      217412.379          43.500  
  22980000.000      151560.547          47.000  
  24515716.320      599153.637          45.500  
 16 09 28 13 59 56.6000000  0  9G14G22G28G32G 8G11G17G 1G 3         
  24667908.050      192716.492          48.500  
  23530857.600      342472.527          43.750  
  26444859.030     -187041.070          44.000  
  25331800.520     -202699.789          43.250  
  25873427.670     -557033.520          42.750  
  23102931.580     -119059.613          47.250  
  26671952.220      218122.383          44.250  
  22980000.000      151709.195          46.750  
  24515627.480      599770.758          48.000  
 16 09 28 13 59 56.8000000  0  9G14G22G28G32G 8G11G17G 1G 3         
  24667899.060      192902.031          44.000  
  23530815.690      342837.922          49.500  
  26444924.050     -187254.543          45.000  
  25331870.550     -202933.707          41.750  
  25873567.450     -557637.535          47.250  
  23102986.500     -119205.633          46.250  
  26671845.540      218829.879          39.250  
  22980000.000      151855.945          50.000  
  24515538.230      600385.609          50.500  
 16 09 28 13 59 57.0000000  0  9G14G22G28G32G 8G11G17G 1G 3         
  24667893.570      193089.523          47.000  
  23530773.740      343204.773          46.750  
  26444991.820     -187466.742          44.500  
  25331942.930     -203165.402          40.500  
  25873711.530     -558240.094          46.500  
  23103039.180     -119350.078          52.000  
  26671738.400      219538.918          37.250  
  22980000.000      152004.348          47.250  
  24515449.750      601001.711          47.000  
 16 09 28 13 59 57.2000000  0  9G14G22G28G32G 8G11G17G 1G 3         
  24667885.420      193278.680          47.000  
  23530732.960      343573.426          50.000  
  26445059.880     -187676.707          41.750  
  25332014.560     -203395.230          43.750  
  25873854.920     -558841.305          38.250  
  23103095.560     -119492.809          46.500  
  26671631.170      220250.539          44.250  
  22980000.000      152154.691          50.750  
  24515361.180      601619.758          52.250  
 16 09 28 13 59 57.4000000  0  9G14G22G28G32G 8G11G17G 1G 3         
  24667878.490      193467.730          46.750  
  23530692.100      343942.785          53.500  
  26445130.590     -187885.406          45.750  
  25332087.350     -203625.078          41.750  
  25873997.840     -559442.043          38.750  
  23103149.900     -119635.164          50.750  
  26671522.910      220963.199          40.500  
  22980000.000      152305.555          47.000  
  24515273.230      602238.648          43.250  
 16 09 28 13 59 57.6000000  0  9G14G22G28G32G 8G11G17G 1G 3         
  24667872.750      193656.562          42.750  
  23530651.040      344312.121          50.750  
  26445201.230     -188094.273          42.500  
  25332155.840     -203855.348          41.250  
  25874144.040     -560042.715          36.500  
  23103207.940     -119777.578          48.000  
  26671417.050      221675.516          47.000  
  22980000.000      152456.234          45.500  
  24515183.520      602857.660          47.250  
 16 09 28 13 59 57.8000000  0  9G14G22G28G32G 8G11G17G 1G 3         
  24667864.650      193844.219          40.000  
  23530607.660      344679.922          47.000  
  26445270.430     -188304.949          43.500  
  25332229.900     -204086.863          49.250  
  25874282.570     -560644.582          46.000  
  23103261.690     -119921.367          47.000  
  26671307.900      222385.902          44.000  
  22980000.000      152605.453          49.250  
  24515094.070      603475.027          44.000  
 16 09 28 13 59 58.0000000  0  9G14G22G28G32G 8G11G17G 1G 3         
  24667853.290      194032.020          43.750  
  23530564.390      345047.609          50.250  
  26445340.410     -188515.918          42.750  
  25332300.410     -204318.234          46.250  
  25874421.320     -561246.488          42.500  
  23103314.830     -120065.152          46.750  
  26671197.200      223096.258          38.750  
  22980000.000      152754.625          48.500  
  24515006.290      604092.203          48.750  
 16 09 28 13 59 58.2000000  0  9G14G22G28G32G 8G11G17G 1G 3         
  24667846.210      194220.621          44.750  
  23530522.490      345416.160          49.750  
  26445408.460     -188726.000          42.500  
  25332369.970     -204548.812          41.750  
  25874563.770     -561847.562          41.500  
  23103366.810     -120208.117          48.500  
  26671087.310      223807.414          43.500  
  22980000.000      152904.625          48.500  
  24514915.430      604710.219          49.500  
 16 09 28 13 59 58.4000000  0  9G14G22G28G32G 8G11G17G 1G 3         
  24667841.910      194409.898          46.250  
  23530481.780      345785.168          51.250  
  26445477.480     -188935.734          49.750  
  25332445.860     -204778.699          49.000  
  25874707.560     -562448.129          43.500  
  23103423.610     -120350.570          49.500  
  26670978.600      224518.934          43.750  
  22980000.000      153055.164          51.000  
  24514827.180      605328.672          46.750  
 16 09 28 13 59 58.6000000  0  9G14G22G28G32G 8G11G17G 1G 3         
  24667836.780      194599.043          45.250  
  23530441.310      346153.973          42.750  
  26445544.260     -189145.688          44.750  
  25332523.640     -205008.676          46.250  
  25874853.130     -563048.906          38.500  
  23103483.290     -120493.246          47.000  
  26670875.610      225230.434          45.250  
  22980000.000      153205.516          49.750  
  24514738.830      605946.848          49.000  
 16 09 28 13 59 58.8000000  0  9G14G22G28G32G 8G11G17G 1G 3         
  24667831.230      194787.746          47.500  
  23530399.340      346522.668          47.000  
  26445609.160     -189355.516          43.250  
  25332594.520     -205239.051          49.250  
  25874996.880     -563649.949          44.250  
  23103539.480     -120636.105          48.500  
  26670772.040      225941.910          38.500  
  22980000.000      153355.684          45.750  
  24514651.860      606565.012          48.250  
 16 09 28 13 59 59.0000000  0  9G14G22G28G32G 8G11G17G 1G 3         
  24667823.080      194976.535          47.750  
  23530356.270      346891.500          46.500  
  26445677.900     -189565.242          42.500  
  25332667.970     -205469.391          45.250  
  25875140.460     -564250.828          40.750  
  23103595.970     -120778.895          44.500  
  26670667.550      226653.438          42.000  
  22980000.000      153505.973          48.000  
  24514564.070      607183.375          51.000  
 16 09 28 13 59 59.2000000  0  9G14G22G28G32G 8G11G17G 1G 3         
  24667815.300      195165.387          47.250  
  23530311.310      347260.422          48.750  
  26445746.280     -189774.871          45.250  
  25332740.770     -205699.664          45.750  
  25875286.640     -564851.516          39.000  
  23103649.240     -120921.531          50.750  
  26670559.220      227365.113          38.500  
  22980000.000      153656.320          50.250  
  24514474.720      607801.824          41.250  
 16 09 28 13 59 59.4000000  0  9G14G22G28G32G 8G11G17G 1G 3         
  24667808.110      195354.281          48.750  
  23530269.580      347629.375          45.250  
  26445813.330     -189984.465          43.750  
  25332812.770     -205929.941          47.000  
  25875430.140     -565452.203          46.250  
  23103707.140     -121064.191          46.750  
  26670452.090      228076.777          44.250  
  22980000.000      153806.719          52.000  
  24514386.650      608420.328          54.500  
 16 09 28 13 59 59.6000000  0  9G14G22G28G32G 8G11G17G 1G 3         
  24667797.380      195542.590          49.250  
  23530227.070      347997.758          49.000  
  26445881.700     -190194.668          47.500  
  25332882.620     -206160.781          50.000  
  25875571.380     -566053.469          44.750  
  23103759.390     -121207.414          51.250  
  26670342.160      228787.883          44.250  
  22980000.000      153956.535          49.000  
  24514295.440      609038.223          50.250  
 16 09 28 13 59 59.8000000  0  9G14G22G28G32G 8G11G17G 1G 3         
  24667790.940      195730.074          49.750  
  23530189.150      348365.273          49.500  
  26445952.550     -190405.727          43.750  
  25332954.520     -206392.402          50.500  
  25875714.420     -566655.543          42.000  
  23103817.530     -121351.465          49.750  
  26670232.740      229498.215          43.500  
  22980000.000      154105.496          54.750  
  24514206.860      609655.285          47.750  
 16 09 28 14 00  0.0000000  0  9G14G22G28G32G 8G11G17G 1G 3         
  24667784.550      195917.453          47.250  
  23530149.560      348732.766          51.250  
  26446022.120     -190616.738          43.500  
  25333027.840     -206624.113          44.250  
  25875858.890     -567257.730          45.500  
  23103873.670     -121495.617          50.000  
  26670122.540      230208.465          39.000  
  22980000.000      154254.453          50.750  
  24514119.450      610272.301          48.500  
 16 09 28 14 00  0.2000000  0  9G14G22G28G32G 8G11G17G 1G 3         
  24667779.690      196105.340          48.500  
  23530109.350      349100.727          49.250  
  26446090.330     -190827.348          45.750  
  25333099.440     -206855.363          45.750  
  25876002.450     -567859.375          39.250  
  23103930.500     -121639.281          49.500  
  26670018.730      230919.172          37.250  
  22980000.000      154403.855          49.500  
  24514032.360      610889.793          48.750  
 16 09 28 14 00  0.4000000  0  9G14G22G28G32G 8G11G17G 1G 3         
  24667773.120      196293.566          50.500  
  23530067.280      349469.086          50.750  
  26446157.650     -191037.566          46.000  
  25333170.900     -207086.230          47.250  
  25876144.830     -568460.703          39.500  
  23103986.550     -121782.574          44.750  
  26669910.370      231630.297          41.750  
  22980000.000      154553.637          47.750  
  24513941.810      611507.684          45.250  
 16 09 28 14 00  0.6000000  0  9G14G22G28G32G 8G11G17G 1G 3         
  24667768.830      196481.875          48.250  
  23530023.850      349837.492          48.250  
  26446226.740     -191247.668          43.000  
  25333243.150     -207317.043          42.500  
  25876284.150     -569061.863          40.000  
  23104045.200     -121925.820          51.750  
  26669803.380      232341.508          36.750  
  22980000.000      154703.477          47.250  
  24513853.640      612125.652          47.000  
 16 09 28 14 00  0.8000000  0  9G14G22G28G32G 8G11G17G 1G 3         
  24667763.510      196669.980          48.000  
  23529980.800      350205.762          46.250  
  26446296.870     -191457.961          47.000  
  25333320.260     -207548.074          48.000  
  25876429.440     -569663.242          41.750  
  23104101.850     -122069.199          47.000  
  26669700.200      233052.582          41.500  
  22980000.000      154853.180          50.750  
  24513763.710      612743.477          50.750  
 16 09 28 14 00  1.0000000  0  9G14G22G28G32G 8G11G17G 1G 3         
  24667754.450      196857.977          47.500  
  23529938.100      350573.852          48.500  
  26446362.010     -191668.352          44.000  
  25333390.460     -207779.203          45.250  
  25876568.900     -570264.738          44.750  
  23104154.740     -122212.742          45.000  
  26669591.620      233763.461          46.250  
  22980000.000      155002.715          53.000  
  24513673.100      613361.141          48.250  
 16 09 28 14 00  1.2000000  0  9G14G22G28G32G 8G11G17G 1G 3         
  24667748.070      197045.680          45.250  
  23529897.880      350941.695          47.000  
  26446431.970     -191879.086          46.250  
  25333465.910     -208010.605          45.500  
  25876708.730     -570866.500          44.500  
  23104209.950     -122356.559          47.000  
  26669491.390      234474.145          45.500  
  22980000.000      155151.996          50.500  
  24513586.110      613978.535          51.500  
 16 09 28 14 00  1.4000000  0  9G14G22G28G32G 8G11G17G 1G 3         
  24667740.740      197233.762          44.500  
  23529856.450      351309.867          47.250  
  26446500.430     -192089.531          45.750  
  25333537.840     -208241.668          45.750  
  25876850.810     -571467.863          47.750  
  23104266.680     -122500.051          51.750  
  26669387.210      235185.059          46.500  
  22980000.000      155301.582          54.750  
  24513494.560      614596.238          48.500  
 16 09 28 14 00  1.6000000  0  9G14G22G28G32G 8G11G17G 1G 3         
  24667730.620      197421.203          44.250  
  23529814.060      351677.426          46.000  
  26446570.350     -192300.629          46.250  
  25333609.090     -208473.348          46.250  
  25876995.420     -572069.812          44.750  
  23104321.440     -122644.117          44.500  
  26669277.590      235895.246          41.500  
  22980000.000      155450.539          50.750  
  24513403.840      615213.359          48.750  
 16 09 28 14 00  1.8000000  0  9G14G22G28G32G 8G11G17G 1G 3         
  24667720.140      197607.910          46.000  
  23529772.300      352044.309          52.750  
  26446637.900     -192512.320          39.250  
  25333677.040     -208705.727          49.750  
  25877135.580     -572672.520          44.500  
  23104376.010     -122788.910          50.250  
  26669166.800      236605.062          37.000  
  22980000.000      155598.832          48.250  
  24513312.520      615829.801          53.750  
 16 09 28 14 00  2.0000000  0  9G14G22G28G32G 8G11G17G 1G 3         
  24667711.930      197794.586          43.000  
  23529732.130      352411.207          49.500  
  26446705.890     -192723.918          39.250  
  25333748.640     -208938.191          49.000  
  25877279.070     -573275.219          40.000  
  23104430.210     -122933.723          47.750  
  26669060.140      237314.859          45.250  
  22980000.000      155747.176          50.250  
  24513222.570      616446.305          48.500  
 16 09 28 14 00  2.2000000  0  9G14G22G28G32G 8G11G17G 1G 3         
  24667705.430      197981.188          40.250  
  23529689.280      352778.117          49.500  
  26446773.420     -192935.477          42.500  
  25333823.170     -209170.656          48.250  
  25877420.820     -573877.914          45.250  
  23104485.610     -123078.566          49.000  
  26668954.920      238024.578          40.000  
  22980000.000      155895.477          44.750  
  24513130.730      617062.797          49.250  
 16 09 28 14 00  2.4000000  0  9G14G22G28G32G 8G11G17G 1G 3         
  24667697.810      198168.781          44.750  
  23529644.360      353145.941          49.000  
  26446841.600     -193146.188          42.250  
  25333899.800     -209402.113          46.000  
  25877567.090     -574479.645          44.750  
  23104540.560     -123222.434          47.000  
  26668848.770      238735.336          42.750  
  22980000.000      156044.738          48.250  
  24513041.750      617680.227          48.250  
 16 09 28 14 00  2.6000000  0  9G14G22G28G32G 8G11G17G 1G 3         
  24667687.370      198355.418          44.000  
  23529604.710      353512.789          49.250  
  26446912.690     -193357.859          47.000  
  25333973.840     -209634.535          45.500  
  25877710.530     -575082.402          43.250  
  23104598.360     -123367.309          45.750  
  26668745.220      239445.051          43.500  
  22980000.000      156193.012          47.000  
  24512954.430      618296.652          47.500  
 16 09 28 14 00  2.8000000  0  9G14G22G28G32G 8G11G17G 1G 3         
  24667674.340      198539.750          43.250  
  23529565.380      353877.309          44.250  
  26446982.320     -193571.910          43.000  
  25334046.830     -209869.348          45.000  
  25877855.470     -575687.371          40.000  
  23104655.870     -123514.492          41.500  
  26668641.270      240152.379          44.000  
  22980000.000      156338.934          47.750  
  24512866.300      618910.746          44.750  
 16 09 28 14 00  3.0000000  0  9G14G22G28G32G 8G11G17G 1G 3         
  24667668.270      198724.824          43.750  
  23529524.680      354242.551          46.500  
  26447052.170     -193785.277          45.000  
  25334119.810     -210103.379          49.750  
  25877998.620     -576291.629          44.500  
  23104713.770     -123660.953          49.250  
  26668534.960      240860.445          42.750  
  22980000.000      156485.594          45.500  
  24512779.750      619525.578          53.250  
 16 09 28 14 00  3.2000000  0  9G14G22G28G32G 8G11G17G 1G 3         
  24667661.970      198909.531          42.750  
  23529482.890      354607.480          47.000  
  26447119.630     -193998.953          44.750  
  25334194.950     -210337.758          45.750  
  25878143.210     -576896.199          42.500  
  23104770.560     -123807.750          45.750  
  26668432.140      241568.234          43.750  
  22980000.000      156631.934          46.000  
  24512690.490      620140.094          48.250  
 16 09 28 14 00  3.4000000  0  9G14G22G28G32G 8G11G17G 1G 3         
  24667656.840      199096.148          45.500  
  23529443.890      354974.301          54.000  
  26447188.700     -194210.676          46.250  
  25334265.310     -210570.230          49.750  
  25878286.130     -577498.910          46.250  
  23104827.930     -123952.676          50.000  
  26668325.290      242277.965          41.000  
  22980000.000      156780.168          48.500  
  24512603.430      620756.465          50.250  
 16 09 28 14 00  3.6000000  0  9G14G22G28G32G 8G11G17G 1G 3         
  24667648.060      199279.902          45.250  
  23529399.580      355338.285          49.750  
  26447252.600     -194425.227          47.500  
  25334335.930     -210805.523          43.250  
  25878426.370     -578104.441          41.750  
  23104882.500     -124100.422          46.000  
  26668215.080      242984.879          42.000  
  22980000.000      156925.578          46.750  
  24512512.220      621370.059          49.750  
 16 09 28 14 00  3.8000000  0  9G14G22G28G32G 8G11G17G 1G 3         
  24667642.820      199463.352          44.250  
  23529359.780      355701.953          48.500  
  26447323.290     -194640.168          46.000  
  25334407.130     -211041.180          49.500  
  25878570.180     -578710.281          44.250  
  23104939.180     -124248.480          47.500  
  26668108.410      243691.414          41.500  
  22980000.000      157070.641          50.250  
  24512423.260      621983.336          48.250  
 16 09 28 14 00  4.0000000  0  9G14G22G28G32G 8G11G17G 1G 3         
  24667634.010      199646.633          40.000  
  23529315.180      356065.520          47.750  
  26447390.390     -194855.191          40.000  
  25334480.090     -211276.945          43.500  
  25878713.670     -579316.172          47.250  
  23104994.290     -124396.652          44.750  
  26667999.250      244397.844          44.250  
  22980000.000      157215.605          45.000  
  24512332.620      622596.496          45.250  
 16 09 28 14 00  4.2000000  0  9G14G22G28G32G 8G11G17G 1G 3         
  24667627.990      199834.723          43.750  
  23529272.650      356433.828          46.750  
  26447455.460     -195065.500          45.500  
  25334551.740     -211508.008          45.250  
  25878857.790     -579917.285          42.750  
  23105049.760     -124540.105          46.250  
  26667892.530      245109.016          45.250  
  22980000.000      157365.320          47.750  
  24512243.210      623214.426          46.750  
 16 09 28 14 00  4.4000000  0  9G14G22G28G32G 8G11G17G 1G 3         
  24667620.310      200022.371          46.750  
  23529230.390      356801.707          52.000  
  26447521.440     -195276.211          40.500  
  25334622.380     -211739.438          45.750  
  25879000.730     -580518.859          44.750  
  23105103.470     -124683.988          47.250  
  26667785.190      245819.773          49.750  
  22980000.000      157514.602          48.750  
  24512152.330      623831.883          48.000  
 16 09 28 14 00  4.6000000  0  9G14G22G28G32G 8G11G17G 1G 3         
  24667613.440      200210.695          49.250  
  23529190.390      357170.273          48.750  
  26447590.490     -195486.242          44.000  
  25334695.880     -211970.215          46.000  
  25879146.960     -581119.766          43.250  
  23105159.910     -124827.176          53.000  
  26667676.600      246531.234          43.750  
  22980000.000      157664.562          50.250  
  24512063.630      624450.059          50.750  
 16 09 28 14 00  4.8000000  0  9G14G22G28G32G 8G11G17G 1G 3         
  24667607.150      200398.820          43.500  
  23529147.640      357538.652          45.250  
  26447658.340     -195696.523          43.000  
  25334770.860     -212201.168          47.750  
  25879291.190     -581720.840          47.000  
  23105216.010     -124970.559          50.750  
  26667567.920      247242.531          43.500  
  22980000.000      157814.332          51.500  
  24511972.870      625068.016          49.250  
 16 09 28 14 00  5.0000000  0  9G14G22G28G32G 8G11G17G 1G 3         
  24667602.620      200587.289          46.500  
  23529107.500      357907.387          48.000  
  26447726.030     -195906.387          42.250  
  25334844.100     -212431.762          51.000  
  25879434.590     -582321.551          44.250  
  23105270.210     -125113.602          50.250  
  26667462.070      247954.148          37.500  
  22980000.000      157964.461          49.000  
  24511884.550      625686.375          48.750  
 16 09 28 14 00  5.2000000  0  9G14G22G28G32G 8G11G17G 1G 3         
  24667596.200      200775.336          43.500  
  23529064.610      358275.711          54.500  
  26447791.800     -196116.629          47.250  
  25334916.030     -212662.801          43.500  
  25879574.560     -582922.656          44.000  
  23105324.360     -125257.070          52.250  
  26667353.960      248665.371          43.000  
  22980000.000      158114.191          46.250  
  24511793.290      626304.297          48.500  
 16 09 28 14 00  5.4000000  0  9G14G22G28G32G 8G11G17G 1G 3         
  24667588.480      200963.719          44.250  
  23529023.990      358644.406          50.250  
  26447861.600     -196326.570          47.000  
  25334989.720     -212893.477          49.500  
  25879717.760     -583523.395          47.000  
  23105380.580     -125400.176          47.750  
  26667247.220      249376.988          42.750  
  22980000.000      158264.258          53.750  
  24511705.880      626922.598          45.250  
 16 09 28 14 00  5.6000000  0  9G14G22G28G32G 8G11G17G 1G 3         
  24667579.300      201149.996          40.500  
  23528981.880      359010.945          48.750  
  26447933.200     -196538.586          41.500  
  25335059.080     -213126.273          43.250  
  25879859.280     -584126.301          43.000  
  23105436.270     -125545.426          44.000  
  26667139.190      250086.469          39.250  
  22980000.000      158412.211          47.000  
  24511615.580      627538.758          47.250  
 16 09 28 14 00  5.8000000  0  9G14G22G28G32G 8G11G17G 1G 3         
  24667569.410      201333.812          38.500  
  23528941.130      359375.121          48.250  
  26448002.810     -196752.965          43.250  
  25335129.640     -213361.449          45.250  
  25880000.730     -584731.586          39.750  
  23105493.120     -125693.078          46.000  
  26667033.250      250793.633          42.000  
  22980000.000      158557.793          46.500  
  24511527.540      628152.574          45.000  
 16 09 28 14 00  6.0000000  0  9G14G22G28G32G 8G11G17G 1G 3         
  24667558.630      201520.719          44.750  
  23528901.240      359742.297          47.750  
  26448073.410     -196964.406          41.500  
  25335201.790     -213593.660          40.500  
  25880146.580     -585333.809          46.000  
  23105549.950     -125837.688          49.500  
  26666927.500      251503.812          42.500  
  22980000.000      158706.375          47.250  
  24511439.400      628769.383          47.000  
 16 09 28 14 00  6.2000000  0  9G14G22G28G32G 8G11G17G 1G 3         
  24667548.630      201706.531          47.750  
  23528860.980      360108.438          47.750  
  26448142.980     -197176.887          44.750  
  25335273.250     -213826.930          46.500  
  25880288.520     -585937.086          39.500  
  23105603.600     -125983.363          45.500  
  26666822.550      252212.875          39.250  
  22980000.000      158853.871          48.500  
  24511349.460      629385.129          46.500  
 16 09 28 14 00  6.4000000  0  9G14G22G28G32G 8G11G17G 1G 3         
  24667540.230      201893.758          45.500  
  23528817.340      360475.984          47.500  
  26448212.380     -197387.945          40.500  
  25335347.480     -214058.777          43.000  
  25880433.950     -586538.898          43.000  
  23105658.550     -126127.641          46.000  
  26666716.310      252923.387          47.250  
  22980000.000      159002.797          47.000  
  24511260.550      630002.336          47.500  
 16 09 28 14 00  6.6000000  0  9G14G22G28G32G 8G11G17G 1G 3         
  24667537.130      202077.129          43.250  
  23528776.110      360839.699          49.000  
  26448283.140     -197602.789          44.000  
  25335418.520     -214294.449          44.750  
  25880576.170     -587144.617          41.750  
  23105714.140     -126275.773          51.000  
  26666610.710      253630.078          42.000  
  22980000.000      159147.906          46.750  
  24511172.710      630615.660          46.000  
 16 09 28 14 00  6.8000000  0  9G14G22G28G32G 8G11G17G 1G 3         
  24667531.960      202261.305          41.250  
  23528735.180      361204.246          45.250  
  26448351.650     -197816.875          41.000  
  25335490.420     -214529.273          39.750  
  25880717.030     -587749.465          46.250  
  23105770.980     -126423.031          46.000  
  26666505.320      254337.609          41.250  
  22980000.000      159293.875          50.500  
  24511084.880      631229.852          45.250  
 16 09 28 14 00  7.0000000  0  9G14G22G28G32G 8G11G17G 1G 3         
  24667526.810      202445.016          42.750  
  23528694.930      361568.281          45.750  
  26448420.830     -198031.418          44.500  
  25335564.500     -214764.660          42.000  
  25880859.110     -588354.781          43.750  
  23105827.260     -126570.867          45.500  
  26666397.170      255044.637          40.000  
  22980000.000      159439.246          45.250  
  24510996.840      631843.523          47.250  
 16 09 28 14 00  7.2000000  0  9G14G22G28G32G 8G11G17G 1G 3         
  24667523.590      202631.426          42.250  
  23528655.630      361935.035          50.000  
  26448489.770     -198243.289          38.750  
  25335639.690     -214997.324          45.000  
  25881005.970     -588957.422          44.750  
  23105887.060     -126715.945          49.000  
  26666291.370      255754.371          40.000  
  22980000.000      159587.383          49.000  
  24510910.290      632459.898          46.750  
 16 09 28 14 00  7.4000000  0  9G14G22G28G32G 8G11G17G 1G 3         
  24667514.280      202816.590          46.000  
  23528613.140      362300.586          45.750  
  26448558.050     -198456.309          43.500  
  25335712.490     -215231.172          44.250  
  25881147.210     -589561.227          44.000  
  23105942.270     -126862.227          47.750  
  26666182.740      256462.895          34.750  
  22980000.000      159734.324          48.250  
  24510820.000      633075.125          49.250  
 16 09 28 14 00  7.6000000  0  9G14G22G28G32G 8G11G17G 1G 3         
  24667504.630      203000.043          42.500  
  23528572.620      362664.410          44.750  
  26448628.430     -198671.090          40.750  
  25335780.770     -215466.805          43.500  
  25881292.080     -590166.758          41.250  
  23105999.070     -127010.305          47.750  
  26666073.620      257169.758          42.250  
  22980000.000      159879.523          49.000  
  24510729.050      633688.586          46.250  
 16 09 28 14 00  7.8000000  0  9G14G22G28G32G 8G11G17G 1G 3         
  24667494.250      203181.504          45.500  
  23528529.200      363026.238          50.750  
  26448695.880     -198887.902          46.250  
  25335852.600     -215704.375          43.000  
  25881432.800     -590774.289          47.500  
  23106054.160     -127160.336          47.500  
  26665966.460      257874.574          43.500  
  22980000.000      160022.727          52.250  
  24510640.140      634300.062          49.000  
 16 09 28 14 00  8.0000000  0  9G14G22G28G32G 8G11G17G 1G 3         
  24667487.030      203365.109          46.000  
  23528486.690      363390.234          45.750  
  26448766.290     -199102.488          45.500  
  25335928.140     -215939.820          41.000  
  25881574.620     -591379.629          41.500  
  23106111.080     -127308.188          46.000  
  26665857.120      258581.566          37.750  
  22980000.000      160168.102          45.250  
  24510551.550      634913.723          48.000  
 16 09 28 14 00  8.2000000  0  9G14G22G28G32G 8G11G17G 1G 3         
  24667480.590      203549.176          44.500  
  23528446.030      363754.707          49.500  
  26448836.230     -199316.668          45.500  
  25336000.590     -216174.773          46.500  
  25881718.650     -591984.496          46.750  
  23106166.030     -127455.613          46.250  
  26665749.210      259289.113          43.250  
  22980000.000      160313.938          47.500  
  24510461.770      635527.848          49.750  
 16 09 28 14 00  8.4000000  0  9G14G22G28G32G 8G11G17G 1G 3         
  24667480.380      203733.309          46.750  
  23528406.320      364119.230          49.000  
  26448905.350     -199530.750          45.500  
  25336073.170     -216409.688          44.250  
  25881862.250     -592589.320          43.500  
  23106223.900     -127602.949          46.000  
  26665646.860      259996.656          46.250  
  22980000.000      160459.816          48.250  
  24510373.680      636142.020          48.250  
 16 09 28 14 00  8.6000000  0  9G14G22G28G32G 8G11G17G 1G 3         
  24667476.440      203920.059          45.000  
  23528366.150      364486.402          42.250  
  26448973.820     -199742.129          41.750  
  25336144.280     -216641.969          45.500  
  25882007.520     -593191.414          46.500  
  23106279.130     -127747.668          44.250  
  26665540.470      260706.852          45.500  
  22980000.000      160608.359          51.500  
  24510285.140      636758.871          49.000  
 16 09 28 14 00  8.8000000  0  9G14G22G28G32G 8G11G17G 1G 3         
  24667468.970      204107.035          43.500  
  23528323.900      364853.801          48.000  
  26449043.310     -199953.398          39.000  
  25336215.890     -216874.059          45.500  
  25882147.740     -593793.336          45.000  
  23106333.450     -127892.188          47.750  
  26665434.250      261417.270          45.500  
  22980000.000      160757.125          48.750  
  24510195.840      637375.906          45.500  
 16 09 28 14 00  9.0000000  0  9G14G22G28G32G 8G11G17G 1G 3         
  24667459.370      204294.055          44.250  
  23528282.460      365221.270          53.750  
  26449111.380     -200164.543          47.000  
  25336289.880     -217106.031          43.500  
  25882289.660     -594395.156          44.000  
  23106389.710     -128036.637          51.250  
  26665328.570      262127.809          45.000  
  22980000.000      160905.961          48.500  
  24510106.970      637993.070          44.500  
 16 09 28 14 00  9.2000000  0  9G14G22G28G32G 8G11G17G 1G 3         
  24667450.210      204480.496          47.500  
  23528239.650      365588.125          48.500  
  26449177.120     -200376.320          41.000  
  25336360.570     -217338.656          47.000  
  25882432.960     -594997.605          40.000  
  23106445.360     -128181.703          49.000  
  26665222.510      262837.699          47.750  
  22980000.000      161054.180          49.000  
  24510018.160      638609.594          51.250  
 16 09 28 14 00  9.4000000  0  9G14G22G28G32G 8G11G17G 1G 3         
  24667443.210      204665.500          46.500  
  23528196.970      365953.605          47.750  
  26449246.290     -200589.445          43.750  
  25336434.910     -217572.676          47.500  
  25882574.060     -595601.430          43.000  
  23106501.130     -128328.137          51.000  
  26665117.790      263546.262          45.750  
  22980000.000      161201.000          51.250  
  24509928.370      639224.773          46.250  
 16 09 28 14 00  9.6000000  0  9G14G22G28G32G 8G11G17G 1G 3         
  24667436.090      204849.965          44.000  
  23528154.300      366318.500          45.500  
  26449311.890     -200803.242          40.750  
  25336504.260     -217807.238          45.250  
  25882717.050     -596205.789          48.000  
  23106555.660     -128475.168          45.750  
  26665010.010      264254.152          42.000  
  22980000.000      161347.258          51.500  
  24509836.910      639839.320          46.500  
 16 09 28 14 00  9.8000000  0  9G14G22G28G32G 8G11G17G 1G 3         
  24667430.260      205034.398          46.500  
  23528113.850      366683.387          46.250  
  26449381.200     -201016.957          45.500  
  25336577.480     -218041.848          45.250  
  25882862.830     -596810.168          46.250  
  23106612.460     -128622.207          53.250  
  26664904.580      264962.145          42.250  
  22980000.000      161493.492          52.250  
  24509748.800      640453.891          47.750  
 16 09 28 14 00 10.0000000  0  9G14G22G28G32G 8G11G17G 1G 3         
  24667423.630      205219.711          44.750  
  23528072.630      367049.156          47.250  
  26449447.740     -201229.781          41.750  
  25336649.830     -218275.555          44.500  
  25883003.670     -597413.719          39.250  
  23106669.140     -128768.391          45.750  
  26664796.580      265671.070          41.750  
  22980000.000      161640.629          48.000  
  24509658.790      641069.316          48.250  
 16 09 28 14 00 10.2000000  0  9G14G22G28G32G 8G11G17G 1G 3         
  24667417.380      205407.531          43.750  
  23528031.070      367417.383          44.250  
  26449518.200     -201440.137          42.750  
  25336722.680     -218506.668          43.250  
  25883145.210     -598014.867          45.000  
  23106726.480     -128912.094          50.500  
  26664688.830      266382.535          42.500  
  22980000.000      161790.258          49.250  
  24509571.090      641687.246          47.250  
 16 09 28 14 00 10.4000000  0  9G14G22G28G32G 8G11G17G 1G 3         
  24667408.120      205595.617          47.000  
  23527986.380      367785.871          42.250  
  26449586.660     -201650.129          41.250  
  25336794.090     -218737.457          42.750  
  25883287.040     -598615.730          42.500  
  23106779.480     -129055.551          44.250  
  26664579.870      267094.387          43.000  
  22980000.000      161940.184          52.750  
  24509482.630      642305.406          48.000  
 16 09 28 14 00 10.6000000  0  9G14G22G28G32G 8G11G17G 1G 3         
  24667400.790      205784.312          48.750  
  23527941.900      368155.062          49.000  
  26449651.990     -201859.602          41.750  
  25336866.930     -218967.656          43.250  
  25883428.360     -599215.945          41.250  
  23106831.240     -129198.387          48.750  
  26664471.130      267806.824          40.000  
  22980000.000      162090.742          49.000  
  24509391.820      642924.227          49.500  
 16 09 28 14 00 10.8000000  0  9G14G22G28G32G 8G11G17G 1G 3         
  24667388.890      205971.223          43.000  
  23527899.090      368522.391          45.250  
  26449718.460     -202070.836          41.000  
  25336938.140     -219199.711          45.500  
  25883572.620     -599817.887          40.750  
  23106884.350     -129342.984          49.250  
  26664359.400      268517.387          41.250  
  22980000.000      162239.488          48.500  
  24509296.840      643541.227          44.750  
 16 09 28 14 00 11.0000000  0  9G14G22G28G32G 8G11G17G 1G 3         
  24667381.260      206156.746          46.000  
  23527861.160      368888.359          46.250  
  26449789.530     -202283.523          43.750  
  25337010.870     -219433.254          44.750  
  25883713.140     -600421.113          41.500  
  23106940.610     -129488.973          47.500  
  26664253.130      269226.512          42.500  
  22980000.000      162386.824          49.000  
  24509208.280      644156.879          46.250  
 16 09 28 14 00 11.2000000  0  9G14G22G28G32G 8G11G17G 1G 3         
  24667371.800      206345.262          44.750  
  23527821.460      369257.367          47.500  
  26449859.440     -202493.141          42.500  
  25337083.850     -219663.770          40.750  
  25883852.610     -601021.367          42.250  
  23106997.030     -129631.938          48.750  
  26664144.990      269938.574          43.500  
  22980000.000      162537.164          51.500  
  24509119.080      644775.590          46.250  
 16 09 28 14 00 11.4000000  0  9G14G22G28G32G 8G11G17G 1G 3         
  24667364.300      206533.703          42.500  
  23527780.340      369626.312          52.000  
  26449928.020     -202702.879          47.500  
  25337157.680     -219894.352          43.250  
  25883998.730     -601621.629          44.000  
  23107053.520     -129774.980          50.750  
  26664035.700      270650.629          43.750  
  22980000.000      162687.445          47.000  
  24509031.600      645394.273          47.500  
 16 09 28 14 00 11.6000000  0  9G14G22G28G32G 8G11G17G 1G 3         
  24667355.470      206722.285          49.250  
  23527738.550      369995.520          48.250  
  26449995.270     -202912.266          45.750  
  25337227.050     -220124.730          50.750  
  25884142.560     -602221.656          44.500  
  23107108.380     -129917.789          53.750  
  26663926.040      271363.016          39.750  
  22980000.000      162837.984          49.250  
  24508941.360      646013.180          48.750  
 16 09 28 14 00 11.8000000  0  9G14G22G28G32G 8G11G17G 1G 3         
  24667349.120      206908.027          49.750  
  23527697.330      370361.785          49.500  
  26450063.500     -203124.617          45.250  
  25337300.230     -220358.035          46.250  
  25884286.920     -602824.562          40.500  
  23107163.070     -130063.504          46.750  
  26663812.960      272072.383          40.750  
  22980000.000      162985.598          44.750  
  24508852.590      646629.188          49.500  
 16 09 28 14 00 12.0000000  0  9G14G22G28G32G 8G11G17G 1G 3         
  24667342.020      207092.863          44.750  
  23527655.140      370727.199          50.500  
  26450134.040     -203337.844          46.250  
  25337376.420     -220592.215          46.000  
  25884428.950     -603428.363          40.750  
  23107220.170     -130210.125          46.500  
  26663710.130      272780.879          42.750  
  22980000.000      163132.316          53.250  
  24508762.830      647244.332          48.000  
 16 09 28 14 00 12.2000000  0  9G14G22G28G32G 8G11G17G 1G 3         
  24667336.210      207277.070          46.750  
  23527612.660      371092.051          48.750  
  26450198.950     -203551.664          44.750  
  25337451.200     -220827.043          47.250  
  25884569.160     -604032.645          41.000  
  23107276.790     -130357.289          45.500  
  26663604.920      273488.781          45.750  
  22980000.000      163278.441          49.000  
  24508672.320      647858.922          43.500  
 16 09 28 14 00 12.4000000  0  9G14G22G28G32G 8G11G17G 1G 3         
  24667329.560      207459.973          42.750  
  23527568.990      371455.469          45.750  
  26450266.760     -203767.020          42.750  
  25337522.110     -221063.223          46.000  
  25884711.230     -604638.262          38.250  
  23107332.340     -130505.859          44.000  
  26663500.640      274195.148          40.500  
  22980000.000      163423.168          50.250  
  24508584.790      648472.051          44.500  
 16 09 28 14 00 12.6000000  0  9G14G22G28G32G 8G11G17G 1G 3         
  24667323.680      207643.691          42.750  
  23527527.700      371819.781          46.250  
  26450335.460     -203981.457          45.250  
  25337590.060     -221298.645          43.000  
  25884853.390     -605242.992          44.750  
  23107387.570     -130653.562          43.750  
  26663396.990      274902.367          42.750  
  22980000.000      163568.750          50.500  
  24508498.580      649086.098          50.000  
 16 09 28 14 00 12.8000000  0  9G14G22G28G32G 8G11G17G 1G 3         
  24667317.640      207828.477          41.500  
  23527483.780      372185.363          48.000  
  26450401.530     -204194.430          43.250  
  25337661.450     -221532.973          44.500  
  25884999.660     -605846.559          41.500  
  23107443.370     -130800.035          45.750  
  26663286.890      275611.078          39.250  
  22980000.000      163715.570          47.500  
  24508408.890      649701.488          44.500  
 16 09 28 14 00 13.0000000  0  9G14G22G28G32G 8G11G17G 1G 3         
  24667310.200      208010.977          45.750  
  23527439.380      372548.570          49.000  
  26450471.190     -204409.781          44.500  
  25337740.120     -221769.484          44.250  
  25885142.180     -606452.539          45.250  
  23107499.960     -130948.926          44.750  
  26663175.070      276317.473          35.000  
  22980000.000      163860.066          49.000  
  24508320.400      650314.492          48.500  
 16 09 28 14 00 13.2000000  0  9G14G22G28G32G 8G11G17G 1G 3         
  24667302.650      208193.133          41.500  
  23527399.140      372911.426          46.250  
  26450540.630     -204625.504          42.250  
  25337812.680     -222006.305          41.750  
  25885287.360     -607058.879          44.250  
  23107558.160     -131098.156          47.000  
  26663070.270      277023.629          39.500  
  22980000.000      164004.230          48.250  
  24508233.830      650927.109          43.750  
 16 09 28 14 00 13.4000000  0  9G14G22G28G32G 8G11G17G 1G 3         
  24667295.200      208376.574          38.250  
  23527359.220      373275.488          48.000  
  26450610.460     -204840.090          49.500  
  25337880.540     -222241.801          41.750  
  25885430.400     -607663.941          42.750  
  23107613.090     -131246.137          49.500  
  26662963.990      277730.855          40.000  
  22980000.000      164149.625          46.500  
  24508143.190      651540.930          46.000  
 16 09 28 14 00 13.6000000  0  9G14G22G28G32G 8G11G17G 1G 3         
  24667288.930      208561.789          42.250  
  23527320.200      373641.309          47.250  
  26450681.150     -205052.887          46.250  
  25337950.920     -222475.680          39.750  
  25885574.980     -608267.230          43.000  
  23107669.950     -131392.391          45.500  
  26662860.250      278439.891          36.750  
  22980000.000      164296.758          47.000  
  24508053.880      652156.500          46.250  
 16 09 28 14 00 13.8000000  0  9G14G22G28G32G 8G11G17G 1G 3         
  24667281.660      208747.656          43.000  
  23527279.570      374007.816          42.500  
  26450751.200     -205265.070          39.750  
  25338023.250     -222708.793          46.000  
  25885721.070     -608869.809          42.000  
  23107727.950     -131537.910          53.000  
  26662757.800      279149.500          39.500  
  22980000.000      164444.559          54.500  
  24507966.940      652772.742          54.250  
 16 09 28 14 00 14.0000000  0  9G14G22G28G32G 8G11G17G 1G 3         
  24667274.520      208933.883          45.750  
  23527237.170      374374.680          48.500  
  26450818.400     -205476.898          42.500  
  25338094.640     -222941.637          45.000  
  25885862.520     -609472.047          49.500  
  23107785.610     -131683.148          46.250  
  26662652.840      279859.457          42.500  
  22980000.000      164592.715          51.750  
  24507880.130      653389.332          50.500  
 16 09 28 14 00 14.2000000  0  9G14G22G28G32G 8G11G17G 1G 3         
  24667267.780      209121.133          48.250  
  23527194.120      374742.566          45.000  
  26450883.400     -205687.664          48.500  
  25338164.390     -223173.305          39.750  
  25886002.540     -610073.266          44.000  
  23107841.360     -131827.305          46.750  
  26662547.490      280570.566          40.500  
  22980000.000      164741.941          50.000  
  24507791.500      654006.988          52.250  
 16 09 28 14 00 14.4000000  0  9G14G22G28G32G 8G11G17G 1G 3         
  24667262.670      209309.629          44.500  
  23527154.180      375111.680          46.500  
  26450953.850     -205897.223          45.000  
  25338238.620     -223403.824          39.500  
  25886143.960     -610673.250          42.500  
  23107899.100     -131970.266          42.750  
  26662440.590      281282.957          41.000  
  22980000.000      164892.375          49.500  
  24507703.480      654625.852          50.250  
 16 09 28 14 00 14.6000000  0  9G14G22G28G32G 8G11G17G 1G 3         
  24667253.370      209497.965          45.250  
  23527113.970      375480.652          45.250  
  26451024.990     -206106.996          42.750  
  25338308.390     -223634.516          45.000  
  25886285.030     -611273.355          45.750  
  23107955.200     -132113.402          46.750  
  26662332.590      281994.977          45.000  
  22980000.000      165042.605          47.250  
  24507614.170      655244.547          45.500  
 16 09 28 14 00 14.8000000  0  9G14G22G28G32G 8G11G17G 1G 3         
  24667244.520      209685.328          44.000  
  23527072.340      375848.668          46.500  
  26451092.090     -206317.621          44.500  
  25338380.560     -223866.129          40.250  
  25886424.850     -611874.375          44.000  
  23108009.770     -132257.445          48.000  
  26662225.550      282706.254          38.750  
  22980000.000      165191.945          49.250  
  24507524.210      655862.348          45.500  
 16 09 28 14 00 15.0000000  0  9G14G22G28G32G 8G11G17G 1G 3         
  24667237.040      209874.117          46.750  
  23527029.320      376218.105          46.250  
  26451160.810     -206526.883          46.000  
  25338451.440     -224096.363          44.250  
  25886566.460     -612474.039          44.000  
  23108065.070     -132400.137          49.750  
  26662117.610      283418.863          43.000  
  22980000.000      165342.676          49.000  
  24507434.150      656481.531          51.750  
 16 09 28 14 00 15.2000000  0  9G14G22G28G32G 8G11G17G 1G 3         
  24667228.970      210063.227          45.500  
  23526986.670      376587.875          45.000  
  26451227.570     -206735.762          45.500  
  25338524.400     -224326.195          43.250  
  25886708.020     -613073.344          45.000  
  23108118.750     -132542.461          48.000  
  26662010.650      284131.887          43.750  
  22980000.000      165493.781          48.750  
  24507342.890      657101.051          50.000  
 16 09 28 14 00 15.4000000  0  9G14G22G28G32G 8G11G17G 1G 3         
  24667225.150      210252.941          43.750  
  23526948.020      376958.246          44.750  
  26451298.860     -206944.066          49.000  
  25338600.010     -224555.492          44.000  
  25886854.740     -613672.039          41.000  
  23108177.820     -132684.188          45.750  
  26661905.800      284845.527          43.250  
  22980000.000      165645.465          48.000  
  24507255.250      657721.199          50.250  
 16 09 28 14 00 15.6000000  0  9G14G22G28G32G 8G11G17G 1G 3         
  24667217.700      210441.973          43.250  
  23526905.830      377327.969          46.750  
  26451363.320     -207153.008          49.000  
  25338673.110     -224785.438          41.000  
  25886996.240     -614271.355          51.250  
  23108230.050     -132826.598          50.500  
  26661795.580      285558.477          44.500  
  22980000.000      165796.484          49.500  
  24507165.040      658340.684          49.250  
 16 09 28 14 00 15.8000000  0  9G14G22G28G32G 8G11G17G 1G 3         
  24667212.080      210629.301          44.250  
  23526865.640      377695.984          48.250  
  26451428.910     -207363.652          42.250  
  25338748.360     -225017.047          41.250  
  25887138.950     -614872.367          43.750  
  23108284.700     -132970.672          46.750  
  26661688.960      286269.816          43.000  
  22980000.000      165945.805          49.250  
  24507076.670      658958.477          45.500  
 16 09 28 14 00 16.0000000  0  9G14G22G28G32G 8G11G17G 1G 3         
  24667206.410      210815.184          42.750  
  23526823.530      378062.613          47.750  
  26451494.700     -207575.719          46.000  
  25338820.970     -225250.098          41.250  
  25887282.640     -615474.789          45.000  
  23108338.240     -133116.199          49.000  
  26661583.490      286979.664          41.000  
  22980000.000      166093.699          47.000  
  24506984.650      659574.879          43.500  
 16 09 28 14 00 16.2000000  0  9G14G22G28G32G 8G11G17G 1G 3         
  24667198.030      211001.941          43.750  
  23526781.280      378430.066          49.000  
  26451565.700     -207786.965          43.500  
  25338894.750     -225482.359          38.250  
  25887426.970     -616076.348          43.750  
  23108395.930     -133260.867          44.750  
  26661473.190      287690.328          43.500  
  22980000.000      166242.445          50.250  
  24506896.860      660192.121          46.250  
 16 09 28 14 00 16.4000000  0  9G14G22G28G32G 8G11G17G 1G 3         
  24667191.540      211187.711          47.750  
  23526741.080      378796.543          49.000  
  26451637.790     -207999.117          45.000  
  25338969.100     -225715.512          42.000  
  25887570.790     -616678.902          46.500  
  23108452.000     -133406.527          49.250  
  26661367.210      288400.062          38.500  
  22980000.000      166390.234          49.250  
  24506808.900      660808.375          48.000  
 16 09 28 14 00 16.6000000  0  9G14G22G28G32G 8G11G17G 1G 3         
  24667181.930      211374.352          47.250  
  23526697.420      379163.879          49.500  
  26451707.980     -208210.477          44.000  
  25339041.220     -225947.922          41.000  
  25887709.750     -617280.562          50.250  
  23108506.650     -133551.371          44.000  
  26661257.540      289110.711          41.750  
  22980000.000      166538.859          54.750  
  24506719.250      661425.488          49.000  
 16 09 28 14 00 16.8000000  0  9G14G22G28G32G 8G11G17G 1G 3         
  24667172.230      211560.324          48.250  
  23526654.600      379530.617          49.000  
  26451777.220     -208422.461          46.750  
  25339109.820     -226180.855          42.750  
  25887850.210     -617882.840          43.000  
  23108561.950     -133696.793          48.500  
  26661149.140      289820.680          41.000  
  22980000.000      166686.871          53.000  
  24506628.980      662041.980          49.000  
 16 09 28 14 00 17.0000000  0  9G14G22G28G32G 8G11G17G 1G 3         
  24667165.070      211746.402          44.250  
  23526611.040      379897.406          46.250  
  26451844.980     -208634.352          47.750  
  25339181.210     -226413.797          43.250  
  25887993.280     -618485.055          46.500  
  23108618.590     -133842.176          46.000  
  26661042.060      290530.781          43.000  
  22980000.000      166834.965          54.250  
  24506538.220      662658.562          46.750  
 16 09 28 14 00 17.2000000  0  9G14G22G28G32G 8G11G17G 1G 3         
  24667159.980      211932.551          44.500  
  23526569.210      380264.312          44.750  
  26451913.560     -208846.121          44.000  
  25339252.840     -226646.516          41.500  
  25888138.430     -619087.184          44.000  
  23108673.530     -133987.449          43.500  
  26660936.890      291240.980          42.750  
  22980000.000      166983.156          50.500  
  24506449.090      663275.254          43.750  
 16 09 28 14 00 17.4000000  0  9G14G22G28G32G 8G11G17G 1G 3         
  24667151.970      212118.699          46.750  
  23526527.510      380631.184          49.000  
  26451981.090     -209057.941          45.000  
  25339323.570     -226879.371          40.500  
  25888280.340     -619689.258          45.000  
  23108729.840     -134132.738          48.750  
  26660829.080      291951.156          43.500  
  22980000.000      167131.309          49.500  
  24506358.280      663891.926          49.500  
 16 09 28 14 00 17.6000000  0  9G14G22G28G32G 8G11G17G 1G 3         
  24667145.200      212306.832          45.000  
  23526485.000      381000.078          46.500  
  26452049.210     -209267.754          44.500  
  25339396.860     -227110.211          39.500  
  25888424.410     -620289.340          41.750  
  23108785.970     -134276.016          51.500  
  26660722.860      292663.355          37.500  
  22980000.000      167281.496          49.750  
  24506270.030      664510.621          51.500  
 16 09 28 14 00 17.8000000  0  9G14G22G28G32G 8G11G17G 1G 3         
  24667137.740      212495.191          48.000  
  23526441.090      381369.211          49.000  
  26452115.870     -209477.328          42.500  
  25339468.750     -227340.805          39.500  
  25888567.390     -620889.133          40.500  
  23108840.840     -134419.051          51.000  
  26660612.800      293375.801          41.000  
  22980000.000      167431.930          49.500  
  24506180.340      665129.570          52.750  
 16 09 28 14 00 18.0000000  0  9G14G22G28G32G 8G11G17G 1G 3         
  24667131.240      212683.652          42.250  
  23526399.860      381738.434          46.000  
  26452185.130     -209686.820          46.000  
  25339540.580     -227571.297          45.250  
  25888712.000     -621488.879          44.500  
  23108896.540     -134562.020          46.250  
  26660507.980      294088.297          45.000  
  22980000.000      167582.398          49.500  
  24506090.430      665748.590          51.250  
 16 09 28 14 00 18.2000000  0  9G14G22G28G32G 8G11G17G 1G 3         
  24667123.090      212872.012          47.000  
  23526359.560      382107.539          46.500  
  26452253.750     -209896.383          47.750  
  25339613.170     -227801.898          38.500  
  25888854.970     -622088.715          46.250  
  23108953.060     -134705.121          48.000  
  26660400.360      294800.711          44.500  
  22980000.000      167732.816          50.000  
  24506001.280      666367.512          42.250  
 16 09 28 14 00 18.4000000  0  9G14G22G28G32G 8G11G17G 1G 3         
  24667115.110      213060.320          47.000  
  23526321.750      382476.656          47.250  
  26452322.800     -210105.973          47.750  
  25339685.360     -228032.523          42.500  
  25889001.690     -622688.559          46.750  
  23109010.250     -134848.223          43.750  
  26660294.270      295513.219          46.500  
  22980000.000      167883.207          53.750  
  24505912.390      666986.414          53.000  
 16 09 28 14 00 18.6000000  0  9G14G22G28G32G 8G11G17G 1G 3         
  24667107.150      213248.539          44.750  
  23526279.050      382845.684          46.000  
  26452391.030     -210315.641          50.500  
  25339760.280     -228263.273          42.000  
  25889145.830     -623288.496          47.000  
  23109068.210     -134991.398          46.500  
  26660187.180      296225.562          40.250  
  22980000.000      168033.488          53.500  
  24505820.860      667605.250          49.250  
 16 09 28 14 00 18.8000000  0  9G14G22G28G32G 8G11G17G 1G 3         
  24667100.590      213436.602          45.750  
  23526238.690      383214.539          47.000  
  26452457.830     -210525.465          46.250  
  25339836.380     -228494.176          43.750  
  25889285.780     -623888.516          48.250  
  23109123.360     -135134.746          51.250  
  26660082.740      296937.750          43.250  
  22980000.000      168183.641          45.250  
  24505731.030      668223.926          51.750  
 16 09 28 14 00 19.0000000  0  9G14G22G28G32G 8G11G17G 1G 3         
  24667092.530      213624.594          44.250  
  23526196.740      383583.352          49.250  
  26452524.700     -210735.395          45.750  
  25339909.270     -228725.141          46.250  
  25889425.180     -624488.637          44.250  
  23109178.010     -135278.184          47.000  
  26659975.240      297649.855          44.250  
  22980000.000      168333.684          50.250  
  24505641.820      668842.539          48.250  
 16 09 28 14 00 19.2000000  0  9G14G22G28G32G 8G11G17G 1G 3         
  24667085.250      213812.527          44.500  
  23526154.470      383952.082          47.250  
  26452590.640     -210945.355          41.500  
  25339977.620     -228956.125          47.000  
  25889568.530     -625088.820          43.250  
  23109232.670     -135421.668          49.000  
  26659869.460      298361.941          46.750  
  22980000.000      168483.695          48.000  
  24505554.080      669461.102          47.750  
 16 09 28 14 00 19.4000000  0  9G14G22G28G32G 8G11G17G 1G 3         
  24667080.090      214000.309          42.750  
  23526113.320      384320.707          47.500  
  26452662.280     -211155.484          45.000  
  25340043.300     -229187.273          41.000  
  25889712.320     -625689.109          47.000  
  23109291.090     -135565.289          49.750  
  26659763.990      299073.891          44.750  
  22980000.000      168633.578          54.750  
  24505465.350      670079.527          46.000  
 16 09 28 14 00 19.6000000  0  9G14G22G28G32G 8G11G17G 1G 3         
  24667072.640      214188.035          46.500  
  23526074.220      384689.223          48.250  
  26452731.080     -211365.609          41.750  
  25340115.010     -229418.527          44.750  
  25889856.160     -626289.473          44.500  
  23109347.730     -135709.012          47.250  
  26659657.260      299785.754          44.500  
  22980000.000      168783.371          49.750  
  24505378.850      670697.887          48.250  
 16 09 28 14 00 19.8000000  0  9G14G22G28G32G 8G11G17G 1G 3         
  24667063.700      214375.801          44.500  
  23526033.450      385057.824          49.500  
  26452802.890     -211575.781          46.750  
  25340185.610     -229649.695          40.500  
  25889996.970     -626889.766          45.250  
  23109405.810     -135852.664          49.750  
  26659550.450      300497.730          41.500  
  22980000.000      168933.234          50.500  
  24505290.550      671316.312          50.250  
 16 09 28 14 00 20.0000000  0  9G14G22G28G32G 8G11G17G 1G 3         
  24667055.620      214563.500          50.000  
  23525990.630      385426.340          49.750  
  26452869.880     -211785.957          46.750  
  25340263.630     -229880.895          43.750  
  25890139.190     -627490.168          47.250  
  23109460.370     -135996.387          48.250  
  26659441.910      301209.645          40.250  
  22980000.000      169083.035          51.500  
  24505199.810      671934.637          49.750  
 16 09 28 14 00 20.2000000  0  9G14G22G28G32G 8G11G17G 1G 3         
  24667049.430      214751.051          42.500  
  23525946.530      385794.801          49.000  
  26452937.880     -211996.121          45.000  
  25340345.170     -230112.234          45.250  
  25890281.860     -628090.648          46.000  
  23109515.850     -136140.223          51.000  
  26659336.480      301921.555          43.500  
  22980000.000      169232.742          49.250  
  24505110.900      672552.961          43.750  
 16 09 28 14 00 20.4000000  0  9G14G22G28G32G 8G11G17G 1G 3         
  24667041.470      214938.441          47.250  
  23525902.940      386163.051          49.000  
  26453006.390     -212206.594          38.500  
  25340425.710     -230343.754          44.500  
  25890425.750     -628691.309          45.250  
  23109568.510     -136284.277          50.500  
  26659232.160      302633.262          44.000  
  22980000.000      169382.273          44.500  
  24505020.060      673171.000          48.250  
 16 09 28 14 00 20.6000000  0  9G14G22G28G32G 8G11G17G 1G 3         
  24667033.550      215125.641          42.750  
  23525859.690      386531.094          50.000  
  26453075.170     -212417.277          42.500  
  25340499.630     -230575.473          47.000  
  25890567.970     -629292.148          44.750  
  23109621.700     -136428.469          46.250  
  26659126.870      303344.695          44.500  
  22980000.000      169531.566          48.250  
  24504929.940      673788.875          48.000  
 16 09 28 14 00 20.8000000  0  9G14G22G28G32G 8G11G17G 1G 3         
  24667028.190      215312.477          43.500  
  23525817.510      386898.816          45.500  
  26453144.720     -212628.230          45.500  
  25340573.950     -230807.578          48.000  
  25890709.250     -629893.266          45.000  
  23109677.860     -136573.051          49.000  
  26659021.620      304055.844          44.750  
  22980000.000      169680.551          50.250  
  24504839.740      674406.457          50.750  
 16 09 28 14 00 21.0000000  0  9G14G22G28G32G 8G11G17G 1G 3         
  24667021.420      215498.902          44.250  
  23525775.330      387266.109          49.500  
  26453210.910     -212839.695          45.500  
  25340644.340     -231040.105          49.000  
  25890853.890     -630494.852          43.500  
  23109732.980     -136718.051          51.500  
  26658914.500      304766.516          46.000  
  22980000.000      169829.098          52.500  
  24504750.280      675023.582          43.750  
 16 09 28 14 00 21.2000000  0  9G14G22G28G32G 8G11G17G 1G 3         
  24667013.830      215685.445          47.000  
  23525735.720      387633.531          48.000  
  26453278.090     -213051.020          42.000  
  25340714.490     -231272.500          44.500  
  25890998.070     -631096.207          48.250  
  23109790.300     -136862.910          49.250  
  26658806.600      305477.328          47.000  
  22980000.000      169977.785          52.500  
  24504662.870      675640.871          46.000  
 16 09 28 14 00 21.4000000  0  9G14G22G28G32G 8G11G17G 1G 3         
  24667006.030      215871.508          43.500  
  23525694.640      388000.543          46.000  
  26453346.050     -213262.727          47.000  
  25340788.780     -231505.355          46.250  
  25891136.080     -631698.008          50.250  
  23109847.090     -137008.188          53.000  
  26658699.160      306187.676          43.500  
  22980000.000      170126.016          48.250  
  24504574.010      676257.730          51.250  
 16 09 28 14 00 21.6000000  0  9G14G22G28G32G 8G11G17G 1G 3         
  24666997.830      216056.973          46.250  
  23525654.990      388366.895          48.500  
  26453415.510     -213475.133          49.250  
  25340862.050     -231738.848          42.250  
  25891277.100     -632300.473          43.750  
  23109905.830     -137154.145          53.500  
  26658592.070      306897.418          44.750  
  22980000.000      170273.609          51.750  
  24504488.560      676873.926          46.000  
 16 09 28 14 00 21.8000000  0  9G14G22G28G32G 8G11G17G 1G 3         
  24666990.450      216242.723          48.250  
  23525610.010      388733.516          47.000  
  26453483.810     -213687.281          43.250  
  25340940.590     -231972.059          44.500  
  25891420.660     -632902.625          44.750  
  23109965.330     -137299.828          48.000  
  26658486.160      307607.426          46.250  
  22980000.000      170421.473          45.750  
  24504400.870      677490.406          48.750  
 16 09 28 14 00 22.0000000  0  9G14G22G28G32G 8G11G17G 1G 3         
  24666986.710      216428.895          44.250  
  23525566.680      389100.617          46.250  
  26453555.570     -213898.871          42.250  
  25341016.500     -232204.773          44.000  
  25891562.620     -633504.312          46.000  
  23110020.580     -137445.023          50.250  
  26658380.970      308317.973          45.250  
  22980000.000      170569.828          50.000  
  24504311.940      678107.383          49.250  
 16 09 28 14 00 22.2000000  0  9G14G22G28G32G 8G11G17G 1G 3         
  24666980.500      216615.449          45.750  
  23525526.210      389468.113          41.500  
  26453627.270     -214110.191          46.750  
  25341086.160     -232437.121          43.750  
  25891705.600     -634105.668          47.750  
  23110077.170     -137589.875          50.500  
  26658275.920      309028.887          39.000  
  22980000.000      170718.551          47.750  
  24504222.270      678724.707          46.750  
