     2.11           OBSERVATION DATA    G (GPS)             RINEX VERSION / TYPE
pyNEX                                   20160926 132215 UTC PGM / RUN BY / DATE
                                                            MARKER NAME
                                                            OBSERVER / AGENCY
                                                            REC # / TYPE / VERS
                                                            ANT # / TYPE
   808673.9171 -4086658.5368  4115497.9775                  APPROX POSITION XYZ
        0.0000        0.0000        0.0000                  ANTENNA: DELTA H/E/N
     1     0                                                WAVELENGTH FACT L1/2
     3    C1    L1    S1                                    # / TYPES OF OBSERV
  2014    04    06    03    58    8.2000000     GPS         TIME OF FIRST OBS
                                                            END OF HEADER
 14 04 06 03 58  8.2000000  0  9G212G202G223G221G216G203G219G206G218         
  22514541.280   118315932.703          38.250  
  24330071.260   127864716.398          36.500  
  25306288.350   132994623.047          35.500  
  22451065.820   117982868.234          38.500  
  24393535.840   128195934.645          36.500  
  21134489.410   111069928.742          41.250  
  22223983.830   116791125.078          39.250  
  21836724.310   114759750.906          39.750  
  24773967.520   130192002.191          35.500  
 14 04 06 03 58  8.4000000  0  9G212G202G223G221G216G203G219G206G218         
  22514446.270   118315395.410          38.000  
  24329972.840   127864189.090          36.500  
  25306420.390   132995290.422          35.000  
  22451176.400   117983455.945          38.750  
  24393593.350   128196202.254          36.750  
  21134532.920   111070130.512          41.000  
  22224066.470   116791567.043          39.750  
  21836615.820   114759166.848          40.000  
  24774087.930   130192636.797          35.750  
 14 04 06 03 58  8.6000000  0  9G212G202G223G221G216G203G219G206G218         
  22514335.430   118314858.129          38.250  
  24329866.440   127863661.797          36.750  
  25306551.080   132995957.703          35.000  
  22451285.430   117984043.762          38.750  
  24393628.170   128196469.945          36.500  
  21134574.460   111070332.285          41.250  
  22224145.970   116792009.020          39.250  
  21836501.090   114758582.797          39.250  
  24774202.790   130193271.293          35.750  
 14 04 06 03 58  8.8000000  0  9G212G202G223G221G216G203G219G206G218         
  22514235.360   118314320.879          38.250  
  24329774.000   127863134.637          37.000  
  25306681.360   132996624.988          35.750  
  22451409.350   117984631.547          38.500  
  24393677.670   128196737.684          36.500  
  21134607.730   111070533.969          41.000  
  22224237.560   116792451.035          39.500  
  21836384.730   114757998.703          39.750  
  24774325.230   130193905.805          36.000  
 14 04 06 03 58  9.0000000  0  9G212G202G223G221G216G203G219G206G218         
  22514139.750   118313783.684          38.250  
  24329670.180   127862607.430          36.750  
  25306801.360   132997292.281          35.250  
  22451518.930   117985219.324          38.500  
  24393739.490   128197005.375          36.250  
  21134641.830   111070735.750          41.750  
  22224313.990   116792893.031          40.000  
  21836275.650   114757414.645          40.000  
  24774448.530   130194540.230          35.750  
 14 04 06 03 58  9.2000000  0  9G212G202G223G221G216G203G219G206G218         
  22514038.720   118313246.531          38.500  
  24329570.550   127862080.266          36.750  
  25306921.960   132997959.578          36.000  
  22451632.810   117985807.141          38.500  
  24393790.440   128197273.113          36.500  
  21134678.430   111070937.480          41.500  
  22224405.210   116793335.000          40.000  
  21836165.290   114756830.652          39.750  
  24774571.830   130195174.633          35.500  
 14 04 06 03 58  9.4000000  0  9G212G202G223G221G216G203G219G206G218         
  22513933.600   118312709.441          38.750  
  24329472.680   127861553.184          36.500  
  25307049.940   132998626.875          35.250  
  22451739.110   117986394.902          38.500  
  24393843.190   128197540.770          36.750  
  21134720.590   111071139.246          40.750  
  22224488.320   116793777.023          39.750  
  21836055.730   114756246.695          39.750  
  24774700.190   130195809.098          35.500  
 14 04 06 03 58  9.6000000  0  9G212G202G223G221G216G203G219G206G218         
  22513820.350   118312172.309          38.500  
  24329370.950   127861026.051          36.750  
  25307176.680   132999294.184          36.000  
  22451853.910   117986982.730          38.500  
  24393883.420   128197808.492          36.750  
  21134756.500   111071341.000          41.750  
  22224571.660   116794219.020          40.000  
  21835943.840   114755662.691          39.500  
  24774806.010   130196443.430          36.000  
 14 04 06 03 58  9.8000000  0  9G212G202G223G221G216G203G219G206G218         
  22513722.330   118311635.309          38.000  
  24329269.840   127860498.984          36.750  
  25307306.360   132999961.426          35.500  
  22451969.190   117987570.438          38.000  
  24393943.730   128198076.285          36.500  
  21134799.600   111071542.770          41.250  
  22224659.440   116794661.000          39.750  
  21835832.430   114755078.738          39.500  
  24774931.110   130197077.805          35.750  
 14 04 06 03 58 10.0000000  0  9G212G202G223G221G216G203G219G206G218         
  22513622.450   118311098.270          38.500  
  24329168.960   127859972.012          36.250  
  25307435.790   133000628.746          35.500  
  22452076.400   117988158.262          38.500  
  24393988.650   128198344.129          36.750  
  21134831.070   111071744.527          42.000  
  22224737.310   116795103.055          40.000  
  21835717.000   114754494.766          39.250  
  24775051.530   130197712.141          35.750  
 14 04 06 03 58 10.2000000  0  9G212G202G223G221G216G203G219G206G218         
  22513523.160   118310561.266          37.750  
  24329067.580   127859445.012          36.500  
  25307559.130   133001295.969          36.000  
  22452182.130   117988746.066          38.250  
  24394035.580   128198611.832          36.250  
  21134869.860   111071946.301          41.500  
  22224826.700   116795545.012          40.250  
  21835611.920   114753910.793          39.750  
  24775166.630   130198346.441          36.000  
 14 04 06 03 58 10.4000000  0  9G212G202G223G221G216G203G219G206G218         
  22513423.540   118310024.312          37.750  
  24328967.070   127858918.023          36.250  
  25307684.380   133001963.184          36.250  
  22452297.550   117989333.840          38.750  
  24394086.870   128198879.637          36.250  
  21134915.080   111072148.066          41.250  
  22224901.360   116795987.031          39.250  
  21835504.070   114753326.926          39.500  
  24775286.570   130198980.727          36.250  
 14 04 06 03 58 10.6000000  0  9G212G202G223G221G216G203G219G206G218         
  22513324.310   118309487.379          38.000  
  24328858.190   127858391.137          36.500  
  25307813.330   133002630.422          35.500  
  22452421.300   117989921.609          38.500  
  24394147.470   128199147.430          36.250  
  21134954.670   111072349.812          41.250  
  22224992.550   116796429.066          40.000  
  21835390.370   114752743.039          39.750  
  24775419.620   130199614.992          35.500  
 14 04 06 03 58 10.8000000  0  9G212G202G223G221G216G203G219G206G218         
  22513216.270   118308950.441          38.000  
  24328770.860   127857864.250          35.750  
  25307943.150   133003297.707          35.250  
  22452525.310   117990509.465          38.250  
  24394196.990   128199415.230          36.500  
  21134985.690   111072551.555          41.750  
  22225075.310   116796871.023          39.500  
  21835273.350   114752159.133          39.250  
  24775536.390   130200249.195          35.500  
 14 04 06 03 58 11.0000000  0  9G212G202G223G221G216G203G219G206G218         
  22513119.120   118308413.625          38.750  
  24328658.170   127857337.391          36.750  
  25308068.400   133003964.898          36.250  
  22452632.230   117991097.234          39.000  
  24394246.160   128199683.027          36.250  
  21135022.690   111072753.414          41.750  
  22225162.440   116797313.023          39.750  
  21835168.870   114751575.293          39.000  
  24775650.630   130200883.352          36.000  
 14 04 06 03 58 11.2000000  0  9G212G202G223G221G216G203G219G206G218         
  22513001.320   118307876.832          38.500  
  24328569.270   127856810.590          36.750  
  25308191.350   133004632.082          35.500  
  22452753.240   117991685.051          38.500  
  24394294.680   128199950.871          36.000  
  21135061.550   111072955.121          41.000  
  22225250.150   116797755.129          39.500  
  21835059.420   114750991.469          39.750  
  24775775.320   130201517.504          36.250  
 14 04 06 03 58 11.4000000  0  9G212G202G223G221G216G203G219G206G218         
  22512918.260   118307339.988          37.750  
  24328464.430   127856283.781          36.500  
  25308321.420   133005299.277          36.000  
  22452854.470   117992272.867          38.750  
  24394340.610   128200218.766          36.750  
  21135102.260   111073156.945          41.250  
  22225333.710   116798197.125          39.750  
  21834944.420   114750407.582          39.000  
  24775889.480   130202151.758          36.000  
 14 04 06 03 58 11.6000000  0  9G212G202G223G221G216G203G219G206G218         
  22512806.940   118306803.277          38.250  
  24328366.400   127855757.051          36.750  
  25308447.000   133005966.492          36.000  
  22452972.770   117992860.648          38.750  
  24394402.850   128200486.605          36.250  
  21135144.530   111073358.707          41.250  
  22225415.020   116798639.172          39.750  
  21834841.440   114749823.758          39.750  
  24776021.200   130202785.887          36.000  
 14 04 06 03 58 11.8000000  0  9G212G202G223G221G216G203G219G206G218         
  22512708.070   118306266.609          38.250  
  24328267.410   127855230.289          36.250  
  25308574.350   133006633.730          35.500  
  22453086.050   117993448.398          38.000  
  24394453.890   128200754.418          36.000  
  21135181.070   111073560.488          41.750  
  22225497.950   116799081.184          39.750  
  21834720.330   114749240.008          39.750  
  24776136.580   130203419.965          36.250  
 14 04 06 03 58 12.0000000  0  9G212G202G223G221G216G203G219G206G218         
  22512610.920   118305729.906          38.250  
  24328154.640   127854703.641          36.500  
  25308704.630   133007300.852          35.250  
  22453197.990   117994036.199          38.500  
  24394504.480   128201022.305          36.500  
  21135221.630   111073762.211          41.000  
  22225579.310   116799523.207          39.500  
  21834611.790   114748656.242          39.750  
  24776260.730   130204054.016          35.750  
 14 04 06 03 58 12.2000000  0  9G212G202G223G221G216G203G219G206G218         
  22512504.010   118305193.227          38.250  
  24328064.340   127854176.953          36.250  
  25308835.030   133007968.035          35.750  
  22453300.730   117994624.016          38.000  
  24394554.670   128201290.141          36.250  
  21135257.140   111073964.000          41.250  
  22225668.260   116799965.219          40.000  
  21834504.970   114748072.523          39.500  
  24776385.140   130204688.023          36.000  
 14 04 06 03 58 12.4000000  0  9G212G202G223G221G216G203G219G206G218         
  22512403.860   118304656.652          38.250  
  24327971.420   127853650.383          36.500  
  25308961.520   133008635.203          35.250  
  22453414.570   117995211.836          38.250  
  24394608.540   128201558.043          36.000  
  21135301.900   111074165.805          41.750  
  22225757.390   116800407.277          39.750  
  21834382.900   114747488.789          39.500  
  24776501.750   130205322.121          35.500  
 14 04 06 03 58 12.6000000  0  9G212G202G223G221G216G203G219G206G218         
  22512300.020   118304120.016          38.500  
  24327868.220   127853123.781          36.250  
  25309089.770   133009302.309          35.750  
  22453538.260   117995799.676          38.250  
  24394655.370   128201825.930          36.500  
  21135334.180   111074367.617          41.250  
  22225836.080   116800849.289          39.500  
  21834278.370   114746905.016          39.500  
  24776614.580   130205956.102          36.000  
 14 04 06 03 58 12.8000000  0  9G212G202G223G221G216G203G219G206G218         
  22512203.070   118303583.590          38.250  
  24327762.160   127852597.258          36.250  
  25309214.530   133009969.410          35.750  
  22453646.620   117996387.375          38.250  
  24394701.870   128202093.859          36.250  
  21135366.010   111074569.391          41.500  
  22225915.770   116801291.328          39.250  
  21834161.450   114746321.383          40.250  
  24776745.450   130206590.047          35.500  
 14 04 06 03 58 13.0000000  0  9G212G202G223G221G216G203G219G206G218         
  22512090.190   118303047.074          38.750  
  24327665.290   127852070.762          36.000  
  25309333.020   133010636.637          35.250  
  22453752.090   117996975.184          38.500  
  24394760.710   128202361.719          36.250  
  21135410.180   111074771.199          41.750  
  22226000.870   116801733.359          39.750  
  21834053.060   114745737.723          39.750  
  24776859.100   130207223.988          35.750  
 14 04 06 03 58 13.2000000  0  9G212G202G223G221G216G203G219G206G218         
  22511992.410   118302510.613          38.250  
  24327573.720   127851544.270          36.500  
  25309466.930   133011303.672          36.000  
  22453874.470   117997563.004          38.500  
  24394814.140   128202629.660          36.250  
  21135446.440   111074972.965          41.000  
  22226086.280   116802175.336          39.500  
  21833942.420   114745154.090          39.500  
  24776980.150   130207857.863          35.750  
 14 04 06 03 58 13.4000000  0  9G212G202G223G221G216G203G219G206G218         
  22511895.570   118301974.172          38.500  
  24327461.440   127851017.789          36.750  
  25309585.140   133011970.781          35.250  
  22453976.390   117998150.805          38.500  
  24394859.900   128202897.535          36.750  
  21135493.640   111075174.734          41.250  
  22226170.900   116802617.395          39.500  
  21833833.810   114744570.504          39.750  
  24777098.910   130208491.855          36.250  
 14 04 06 03 58 13.6000000  0  9G212G202G223G221G216G203G219G206G218         
  22511792.420   118301437.805          38.250  
  24327361.580   127850491.422          36.750  
  25309718.230   133012637.863          35.500  
  22454097.180   117998738.578          38.500  
  24394905.000   128203165.477          36.750  
  21135528.430   111075376.512          41.250  
  22226251.850   116803059.441          39.750  
  21833725.060   114743986.832          39.750  
  24777221.610   130209125.738          35.500  
 14 04 06 03 58 13.8000000  0  9G212G202G223G221G216G203G219G206G218         
  22511680.130   118300901.398          38.500  
  24327262.800   127849965.031          36.500  
  25309843.230   133013304.953          35.500  
  22454209.380   117999326.387          39.000  
  24394961.480   128203433.398          36.000  
  21135561.010   111075578.336          41.500  
  22226339.710   116803501.477          40.000  
  21833612.600   114743403.281          39.250  
  24777341.870   130209759.598          36.250  
 14 04 06 03 58 14.0000000  0  9G212G202G223G221G216G203G219G206G218         
  22511583.480   118300365.086          38.000  
  24327162.910   127849438.715          36.000  
  25309978.000   133013972.008          35.750  
  22454315.350   117999914.188          38.500  
  24395008.870   128203701.320          36.000  
  21135608.530   111075780.117          41.500  
  22226424.920   116803943.512          39.500  
  21833499.860   114742819.668          39.500  
  24777466.940   130210393.332          36.000  
 14 04 06 03 58 14.2000000  0  9G212G202G223G221G216G203G219G206G218         
  22511481.430   118299828.840          37.750  
  24327067.200   127848912.449          36.250  
  25310101.740   133014639.070          35.750  
  22454429.680   118000501.992          38.750  
  24395059.580   128203969.285          36.000  
  21135640.180   111075981.863          41.500  
  22226504.330   116804385.535          39.500  
  21833388.110   114742236.172          40.000  
  24777582.170   130211027.176          35.250  
 14 04 06 03 58 14.4000000  0  9G212G202G223G221G216G203G219G206G218         
  22511372.460   118299292.605          38.500  
  24326962.390   127848386.113          36.500  
  25310229.500   133015306.152          35.500  
  22454535.010   118001089.730          38.750  
  24395113.080   128204237.207          36.250  
  21135675.070   111076183.629          41.500  
  22226583.940   116804827.641          39.750  
  21833277.740   114741652.574          40.250  
  24777709.240   130211660.938          36.500  
 14 04 06 03 58 14.6000000  0  9G212G202G223G221G216G203G219G206G218         
  22511275.940   118298756.375          38.500  
  24326861.900   127847859.910          36.000  
  25310353.850   133015973.109          35.500  
  22454655.280   118001677.500          38.500  
  24395165.550   128204505.137          36.500  
  21135716.530   111076385.457          41.250  
  22226673.180   116805269.566          39.500  
  21833166.590   114741069.059          40.250  
  24777823.500   130212294.707          35.750  
 14 04 06 03 58 14.8000000  0  9G212G202G223G221G216G203G219G206G218         
  22511172.050   118298220.211          38.500  
  24326767.870   127847333.723          36.250  
  25310474.480   133016640.148          35.750  
  22454762.490   118002265.293          39.250  
  24395215.080   128204773.164          36.250  
  21135760.350   111076587.254          41.500  
  22226765.780   116805711.672          39.250  
  21833060.060   114740485.625          40.000  
  24777947.830   130212928.414          36.500  
 14 04 06 03 58 15.0000000  0  9G212G202G223G221G216G203G219G206G218         
  22511073.470   118297684.051          38.000  
  24326654.930   127846807.566          36.250  
  25310609.030   133017307.152          35.750  
  22454872.300   118002853.027          38.000  
  24395262.750   128205041.086          35.500  
  21135796.570   111076789.027          41.000  
  22226840.760   116806153.648          39.750  
  21832948.910   114739902.188          39.500  
  24778063.960   130213562.113          36.000  
 14 04 06 03 58 15.2000000  0  9G212G202G223G221G216G203G219G206G218         
  22510964.290   118297147.934          37.750  
  24326565.030   127846281.492          35.500  
  25310735.170   133017974.129          35.500  
  22454987.140   118003440.820          38.500  
  24395322.790   128205309.098          36.500  
  21135839.090   111076990.766          41.500  
  22226929.710   116806595.652          40.000  
  21832836.900   114739318.754          39.750  
  24778193.470   130214195.766          35.750  
 14 04 06 03 58 15.4000000  0  9G212G202G223G221G216G203G219G206G218         
  22510866.750   118296611.875          38.500  
  24326458.070   127845755.387          36.250  
  25310858.580   133018641.102          35.750  
  22455101.370   118004028.602          38.750  
  24395370.800   128205577.043          36.250  
  21135872.250   111077192.551          41.750  
  22227014.590   116807037.719          40.000  
  21832726.010   114738735.309          39.500  
  24778313.520   130214829.434          35.500  
 14 04 06 03 58 15.6000000  0  9G212G202G223G221G216G203G219G206G218         
  22510768.170   118296075.816          38.500  
  24326362.460   127845229.328          36.000  
  25310991.280   133019308.035          35.500  
  22455208.770   118004616.359          38.750  
  24395421.550   128205844.980          35.500  
  21135910.400   111077394.316          41.750  
  22227094.260   116807479.652          39.750  
  21832609.090   114738151.969          39.750  
  24778430.390   130215463.090          35.750  
 14 04 06 03 58 15.8000000  0  9G212G202G223G221G216G203G219G206G218         
  22510663.810   118295539.824          38.250  
  24326266.960   127844703.246          36.500  
  25311116.290   133019975.012          35.750  
  22455324.120   118005204.117          38.500  
  24395468.960   128206112.992          36.500  
  21135948.720   111077596.094          41.250  
  22227180.470   116807921.773          40.250  
  21832493.300   114737568.605          39.750  
  24778552.190   130216096.688          35.750  
 14 04 06 03 58 16.0000000  0  9G212G202G223G221G216G203G219G206G218         
  22510560.760   118295003.840          38.000  
  24326171.230   127844177.305          36.500  
  25311239.250   133020641.980          35.250  
  22455436.780   118005791.844          38.250  
  24395529.480   128206380.965          36.750  
  21135988.040   111077797.820          41.500  
  22227263.470   116808363.758          39.750  
  21832389.340   114736985.285          39.500  
  24778669.520   130216730.219          36.000  
 14 04 06 03 58 16.2000000  0  9G212G202G223G221G216G203G219G206G218         
  22510463.440   118294467.965          38.750  
  24326067.810   127843651.352          36.750  
  25311365.020   133021308.918          35.500  
  22455544.240   118006379.609          39.500  
  24395574.680   128206648.949          36.250  
  21136021.190   111077999.625          41.000  
  22227345.170   116808805.766          39.750  
  21832283.590   114736401.949          39.750  
  24778787.360   130217363.840          36.000  
 14 04 06 03 58 16.4000000  0  9G212G202G223G221G216G203G219G206G218         
  22510358.120   118293932.016          38.250  
  24325959.580   127843125.492          36.000  
  25311494.240   133021975.797          35.500  
  22455658.780   118006967.344          38.750  
  24395614.630   128206916.910          36.750  
  21136065.880   111078201.383          42.000  
  22227432.450   116809247.770          40.000  
  21832169.050   114735818.637          39.500  
  24778913.890   130217997.355          35.750  
 14 04 06 03 58 16.6000000  0  9G212G202G223G221G216G203G219G206G218         
  22510258.850   118293396.230          38.250  
  24325862.700   127842599.621          36.250  
  25311627.130   133022642.688          35.750  
  22455761.340   118007555.082          38.500  
  24395675.270   128207184.973          36.750  
  21136103.790   111078403.172          41.250  
  22227518.510   116809689.762          39.500  
  21832067.030   114735235.367          39.500  
  24779037.880   130218630.852          36.000  
 14 04 06 03 58 16.8000000  0  9G212G202G223G221G216G203G219G206G218         
  22510145.560   118292860.355          38.750  
  24325764.640   127842073.723          37.250  
  25311752.410   133023309.598          35.750  
  22455880.560   118008142.891          38.250  
  24395727.280   128207452.883          36.750  
  21136144.690   111078604.922          42.000  
  22227594.750   116810131.805          39.750  
  21831947.100   114734652.086          39.750  
  24779157.210   130219264.309          35.500  
 14 04 06 03 58 17.0000000  0  9G212G202G223G221G216G203G219G206G218         
  22510056.550   118292324.574          38.250  
  24325664.860   127841548.020          36.250  
  25311871.730   133023976.383          36.250  
  22455990.310   118008730.547          38.750  
  24395781.670   128207720.961          36.250  
  21136179.400   111078806.746          41.750  
  22227683.570   116810573.816          39.750  
  21831827.280   114734068.875          40.250  
  24779275.480   130219897.762          36.000  
 14 04 06 03 58 17.2000000  0  9G212G202G223G221G216G203G219G206G218         
  22509957.560   118291788.836          38.000  
  24325566.370   127841022.195          36.250  
  25312005.040   133024643.254          35.250  
  22456098.790   118009318.289          38.500  
  24395828.860   128207988.977          36.500  
  21136219.110   111079008.445          40.750  
  22227776.500   116811015.836          40.250  
  21831713.620   114733485.684          39.750  
  24779392.870   130220531.227          36.250  
 14 04 06 03 58 17.4000000  0  9G212G202G223G221G216G203G219G206G218         
  22509848.490   118291253.145          38.250  
  24325461.030   127840496.496          36.750  
  25312131.280   133025310.105          36.250  
  22456211.670   118009906.016          38.500  
  24395874.870   128208256.961          36.500  
  21136253.280   111079210.176          41.250  
  22227854.530   116811457.809          40.000  
  21831613.100   114732902.527          39.000  
  24779520.930   130221164.648          35.500  
 14 04 06 03 58 17.6000000  0  9G212G202G223G221G216G203G219G206G218         
  22509749.440   118290717.441          38.250  
  24325363.400   127839970.805          36.500  
  25312253.660   133025976.914          35.500  
  22456332.920   118010493.746          38.750  
  24395926.480   128208524.910          36.500  
  21136285.990   111079411.984          41.250  
  22227931.640   116811899.797          39.750  
  21831500.680   114732319.473          39.250  
  24779639.240   130221798.051          36.000  
 14 04 06 03 58 17.8000000  0  9G212G202G223G221G216G203G219G206G218         
  22509646.030   118290181.793          38.000  
  24325265.960   127839445.160          36.500  
  25312384.810   133026643.621          35.250  
  22456448.530   118011081.441          38.250  
  24395975.770   128208792.949          36.000  
  21136327.930   111079613.762          41.500  
  22228017.750   116812341.828          39.500  
  21831387.290   114731736.223          39.250  
  24779752.440   130222431.426          36.000  
 14 04 06 03 58 18.0000000  0  9G212G202G223G221G216G203G219G206G218         
  22509542.920   118289646.145          38.000  
  24325163.080   127838919.562          36.750  
  25312509.690   133027310.430          35.750  
  22456545.150   118011669.137          38.750  
  24396029.380   128209060.973          36.000  
  21136371.480   111079815.469          41.250  
  22228101.590   116812783.809          39.750  
  21831279.060   114731153.145          39.750  
  24779880.780   130223064.758          36.000  
 14 04 06 03 58 18.2000000  0  9G212G202G223G221G216G203G219G206G218         
  22509438.370   118289110.520          38.250  
  24325057.350   127838393.945          36.750  
  25312643.780   133027977.191          35.500  
  22456660.470   118012256.820          38.500  
  24396085.310   128209328.949          35.750  
  21136402.890   111080017.230          41.500  
  22228199.500   116813225.820          39.500  
  21831168.410   114730570.086          39.750  
  24779994.090   130223698.102          36.000  
 14 04 06 03 58 18.4000000  0  9G212G202G223G221G216G203G219G206G218         
  22509338.140   118288575.086          38.250  
  24324961.230   127837868.445          36.250  
  25312763.920   133028643.957          35.000  
  22456773.400   118012844.531          38.750  
  24396133.980   128209596.965          36.250  
  21136449.300   111080218.938          41.250  
  22228278.440   116813667.777          39.750  
  21831053.050   114729987.035          39.250  
  24780121.440   130224331.359          36.500  
 14 04 06 03 58 18.6000000  0  9G212G202G223G221G216G203G219G206G218         
  22509242.410   118288039.531          38.250  
  24324862.640   127837342.953          36.000  
  25312889.250   133029310.707          36.250  
  22456886.560   118013432.195          39.000  
  24396187.400   128209864.992          36.750  
  21136475.970   111080420.664          42.000  
  22228353.020   116814109.742          39.750  
  21830951.390   114729404.062          39.250  
  24780240.890   130224964.672          36.000  
 14 04 06 03 58 18.8000000  0  9G212G202G223G221G216G203G219G206G218         
  22509141.200   118287504.082          38.250  
  24324756.130   127836817.477          36.500  
  25313015.770   133029977.293          35.250  
  22456994.520   118014019.895          38.250  
  24396233.580   128210133.012          36.750  
  21136521.990   111080622.469          41.750  
  22228438.750   116814551.703          39.750  
  21830832.420   114728820.988          38.750  
  24780354.560   130225597.973          36.000  
 14 04 06 03 58 19.0000000  0  9G212G202G223G221G216G203G219G206G218         
  22509036.440   118286968.621          38.250  
  24324664.880   127836291.961          36.000  
  25313138.960   133030644.012          35.250  
  22457112.410   118014607.586          39.000  
  24396289.510   128210401.004          36.250  
  21136563.600   111080824.188          41.000  
  22228521.390   116814993.629          39.000  
  21830724.980   114728238.020          39.250  
  24780479.140   130226231.184          35.500  
 14 04 06 03 58 19.2000000  0  9G212G202G223G221G216G203G219G206G218         
  22508931.190   118286433.203          38.000  
  24324565.160   127835766.641          37.000  
  25313270.420   133031310.738          36.000  
  22457221.260   118015195.270          39.000  
  24396331.260   128210669.035          35.500  
  21136601.520   111081025.914          41.000  
  22228608.610   116815435.676          40.000  
  21830625.150   114727655.105          39.750  
  24780598.630   130226864.344          35.750  
 14 04 06 03 58 19.4000000  0  9G212G202G223G221G216G203G219G206G218         
  22508838.170   118285897.855          38.250  
  24324468.690   127835241.234          35.750  
  25313397.890   133031977.402          35.750  
  22457330.430   118015782.906          38.250  
  24396385.630   128210937.020          36.500  
  21136645.130   111081227.605          41.500  
  22228698.750   116815877.598          39.750  
  21830506.600   114727072.160          39.500  
  24780721.290   130227497.555          35.500  
 14 04 06 03 58 19.6000000  0  9G212G202G223G221G216G203G219G206G218         
  22508738.250   118285362.500          38.500  
  24324366.960   127834715.941          36.750  
  25313527.920   133032643.941          36.000  
  22457451.870   118016370.508          38.500  
  24396437.480   128211205.074          36.750  
  21136685.030   111081429.355          41.500  
  22228774.540   116816319.605          39.250  
  21830397.810   114726489.242          39.750  
  24780847.250   130228130.652          35.500  
 14 04 06 03 58 19.8000000  0  9G212G202G223G221G216G203G219G206G218         
  22508630.830   118284827.238          37.750  
  24324265.580   127834190.652          35.750  
  25313650.950   133033310.582          35.750  
  22457555.440   118016958.199          38.000  
  24396488.530   128211473.121          35.750  
  21136720.020   111081631.043          41.500  
  22228861.700   116816761.465          40.000  
  21830281.610   114725906.383          39.250  
  24780961.840   130228763.887          36.250  
 14 04 06 03 58 20.0000000  0  9G212G202G223G221G216G203G219G206G218         
  22508522.850   118284291.957          38.250  
  24324158.740   127833665.371          36.500  
  25313780.180   133033977.215          36.000  
  22457662.820   118017545.770          38.250  
  24396540.490   128211741.062          36.250  
  21136759.580   111081832.777          41.000  
  22228949.310   116817203.402          40.000  
  21830169.470   114725323.578          39.250  
  24781084.030   130229396.961          36.000  
 14 04 06 03 58 20.2000000  0  9G212G202G223G221G216G203G219G206G218         
  22508415.540   118283756.758          38.250  
  24324062.820   127833140.164          36.750  
  25313904.880   133034643.785          35.250  
  22457774.960   118018133.434          39.250  
  24396596.290   128212009.141          36.250  
  21136790.560   111082034.531          41.500  
  22229027.020   116817645.391          39.500  
  21830050.540   114724740.742          39.250  
  24781196.000   130230030.148          35.250  
 14 04 06 03 58 20.4000000  0  9G212G202G223G221G216G203G219G206G218         
  22508315.180   118283221.508          38.250  
  24323953.610   127832615.016          36.250  
  25314031.060   133035310.375          35.000  
  22457888.170   118018721.066          38.500  
  24396643.860   128212277.203          36.250  
  21136832.530   111082236.191          41.000  
  22229111.050   116818087.340          39.250  
  21829944.500   114724158.051          39.000  
  24781318.690   130230663.156          36.000  
 14 04 06 03 58 20.6000000  0  9G212G202G223G221G216G203G219G206G218         
  22508222.850   118282686.395          37.750  
  24323869.730   127832089.922          36.750  
  25314153.920   133035976.855          35.750  
  22458007.700   118019308.730          38.500  
  24396694.790   128212545.152          35.750  
  21136873.150   111082437.918          41.250  
  22229195.300   116818529.277          40.000  
  21829845.150   114723575.191          39.500  
  24781446.970   130231296.234          36.000  
 14 04 06 03 58 20.8000000  0  9G212G202G223G221G216G203G219G206G218         
  22508123.190   118282151.258          38.000  
  24323765.900   127831564.727          36.750  
  25314293.960   133036643.336          35.250  
  22458121.170   118019896.297          38.000  
  24396746.880   128212813.188          36.500  
  21136909.650   111082639.602          41.750  
  22229286.120   116818971.191          40.000  
  21829727.060   114722992.488          39.750  
  24781564.860   130231929.289          35.750  
 14 04 06 03 58 21.0000000  0  9G212G202G223G221G216G203G219G206G218         
  22508005.200   118281616.172          38.250  
  24323661.740   127831039.723          36.500  
  25314415.130   133037309.883          35.750  
  22458226.720   118020483.855          38.500  
  24396787.160   128213081.215          36.250  
  21136942.570   111082841.270          41.250  
  22229361.810   116819413.125          39.750  
  21829619.050   114722409.836          39.500  
  24781680.850   130232562.289          35.750  
 14 04 06 03 58 21.2000000  0  9G212G202G223G221G216G203G219G206G218         
  22507914.700   118281081.051          38.250  
  24323560.170   127830514.598          36.500  
  25314540.890   133037976.336          35.250  
  22458349.770   118021071.461          38.000  
  24396844.300   128213349.219          36.250  
  21136984.400   111083042.984          41.500  
  22229450.870   116819855.027          39.750  
  21829504.940   114721827.164          39.750  
  24781809.430   130233195.297          35.500  
 14 04 06 03 58 21.4000000  0  9G212G202G223G221G216G203G219G206G218         
  22507814.220   118280546.043          37.750  
  24323465.330   127829989.773          36.250  
  25314665.990   133038642.809          35.500  
  22458450.670   118021659.082          38.750  
  24396904.740   128213617.250          36.750  
  21137028.700   111083244.703          41.500  
  22229542.740   116820296.961          39.500  
  21829391.940   114721244.500          39.500  
  24781923.450   130233828.207          35.750  
 14 04 06 03 58 21.6000000  0  9G212G202G223G221G216G203G219G206G218         
  22507706.720   118280011.086          39.000  
  24323362.800   127829464.723          36.000  
  25314797.650   133039309.199          35.750  
  22458566.330   118022246.621          38.250  
  24396951.870   128213885.172          36.500  
  21137063.240   111083446.348          41.250  
  22229619.090   116820738.809          39.500  
  21829284.190   114720661.844          39.500  
  24782048.560   130234461.199          35.750  
 14 04 06 03 58 21.8000000  0  9G212G202G223G221G216G203G219G206G218         
  22507609.510   118279476.129          38.000  
  24323260.650   127828939.875          36.000  
  25314916.290   133039975.652          35.250  
  22458677.270   118022834.145          38.750  
  24396993.550   128214153.293          36.250  
  21137094.710   111083648.031          41.500  
  22229705.410   116821180.688          39.750  
  21829177.580   114720079.289          39.250  
  24782167.890   130235094.191          36.000  
 14 04 06 03 58 22.0000000  0  9G212G202G223G221G216G203G219G206G218         
  22507508.400   118278941.184          38.250  
  24323166.210   127828414.945          36.250  
  25315048.500   133040642.066          36.000  
  22458777.690   118023421.758          38.250  
  24397049.730   128214421.254          36.750  
  21137134.960   111083849.719          41.000  
  22229782.330   116821622.594          39.750  
  21829058.620   114719496.730          40.000  
  24782293.760   130235727.082          35.750  
 14 04 06 03 58 22.2000000  0  9G212G202G223G221G216G203G219G206G218         
  22507404.720   118278406.258          38.500  
  24323068.390   127827890.082          36.500  
  25315171.540   133041308.363          36.250  
  22458898.000   118024009.211          38.750  
  24397098.690   128214689.250          37.000  
  21137170.560   111084051.348          41.000  
  22229863.610   116822064.496          40.000  
  21828954.040   114718914.160          39.750  
  24782410.550   130236359.969          35.750  
 14 04 06 03 58 22.4000000  0  9G212G202G223G221G216G203G219G206G218         
  22507305.970   118277871.414          38.250  
  24322961.710   127827365.277          36.250  
  25315297.130   133041974.762          35.750  
  22459016.640   118024596.812          38.250  
  24397150.410   128214957.258          36.000  
  21137220.700   111084253.012          41.750  
  22229954.280   116822506.395          40.000  
  21828838.280   114718331.691          39.750  
  24782528.850   130236992.930          35.500  
 14 04 06 03 58 22.6000000  0  9G212G202G223G221G216G203G219G206G218         
  22507206.600   118277336.656          38.000  
  24322861.610   127826840.535          36.500  
  25315425.900   133042641.078          35.750  
  22459131.160   118025184.316          38.500  
  24397199.150   128215225.273          36.500  
  21137255.320   111084454.672          41.500  
  22230039.410   116822948.258          39.500  
  21828723.180   114717749.223          39.250  
  24782649.420   130237625.730          35.250  
 14 04 06 03 58 22.8000000  0  9G212G202G223G221G216G203G219G206G218         
  22507102.620   118276801.805          38.000  
  24322764.450   127826315.789          36.750  
  25315551.130   133043307.402          36.000  
  22459233.000   118025771.793          39.000  
  24397262.440   128215493.250          36.750  
  21137293.070   111084656.258          41.500  
  22230127.630   116823390.105          40.250  
  21828613.530   114717166.762          39.750  
  24782769.680   130238258.652          35.500  
 14 04 06 03 58 23.0000000  0  9G212G202G223G221G216G203G219G206G218         
  22507000.770   118276267.051          38.000  
  24322658.840   127825791.070          36.500  
  25315676.850   133043973.648          35.500  
  22459346.090   118026359.344          38.500  
  24397306.820   128215761.277          36.500  
  21137329.000   111084857.945          42.000  
  22230212.720   116823831.949          39.500  
  21828505.270   114716584.344          39.500  
  24782894.900   130238891.395          36.000  
 14 04 06 03 58 23.2000000  0  9G212G202G223G221G216G203G219G206G218         
  22506898.440   118275732.348          37.500  
  24322557.760   127825266.492          36.250  
  25315805.510   133044639.902          35.750  
  22459451.270   118026946.816          38.500  
  24397355.100   128216029.230          36.250  
  21137362.490   111085059.551          41.250  
  22230292.270   116824273.793          40.000  
  21828391.200   114716002.059          39.250  
  24783003.890   130239524.258          36.250  
 14 04 06 03 58 23.4000000  0  9G212G202G223G221G216G203G219G206G218         
  22506803.970   118275197.641          38.750  
  24322459.820   127824741.781          36.250  
  25315936.940   133045306.152          35.500  
  22459570.210   118027534.293          38.000  
  24397401.250   128216297.211          36.500  
  21137406.900   111085261.207          41.250  
  22230376.420   116824715.641          39.750  
  21828285.900   114715419.645          39.750  
  24783126.400   130240156.977          35.500  
 14 04 06 03 58 23.6000000  0  9G212G202G223G221G216G203G219G206G218         
  22506695.910   118274662.957          38.500  
  24322360.150   127824217.223          36.500  
  25316060.230   133045972.398          36.000  
  22459688.800   118028121.727          38.000  
  24397458.430   128216565.219          36.250  
  21137444.650   111085462.805          41.500  
  22230457.720   116825157.434          39.500  
  21828175.290   114714837.309          39.000  
  24783248.860   130240789.754          35.000  
 14 04 06 03 58 23.8000000  0  9G212G202G223G221G216G203G219G206G218         
  22506588.620   118274128.383          37.750  
  24322262.920   127823692.652          36.500  
  25316194.950   133046638.559          35.500  
  22459790.040   118028709.250          39.000  
  24397512.670   128216833.227          36.250  
  21137485.660   111085664.480          40.750  
  22230543.580   116825599.254          39.250  
  21828066.450   114714255.055          39.750  
  24783364.430   130241422.488          36.000  
 14 04 06 03 58 24.0000000  0  9G212G202G223G221G216G203G219G206G218         
  22506486.440   118273593.785          37.750  
  24322163.530   127823168.137          36.750  
  25316316.230   133047304.738          35.750  
  22459916.380   118029296.711          38.750  
  24397552.980   128217101.180          36.000  
  21137520.300   111085866.086          41.250  
  22230627.730   116826041.109          39.750  
  21827955.620   114713672.766          39.250  
  24783494.000   130242055.215          35.750  
 14 04 06 03 58 24.2000000  0  9G212G202G223G221G216G203G219G206G218         
  22506383.110   118273059.258          38.500  
  24322067.000   127822643.691          36.250  
  25316436.190   133047970.914          35.750  
  22460022.990   118029884.102          38.750  
  24397611.130   128217369.152          35.750  
  21137563.660   111086067.766          41.750  
  22230710.210   116826482.891          40.000  
  21827839.410   114713090.566          39.500  
  24783617.340   130242687.938          35.750  
 14 04 06 03 58 24.4000000  0  9G212G202G223G221G216G203G219G206G218         
  22506283.200   118272524.719          38.250  
  24321966.000   127822119.254          36.750  
  25316578.930   133048637.047          35.500  
  22460129.080   118030471.535          38.750  
  24397665.090   128217637.090          37.000  
  21137595.950   111086269.266          41.250  
  22230796.710   116826924.789          40.000  
  21827728.310   114712508.348          39.250  
  24783734.660   130243320.617          35.750  
 14 04 06 03 58 24.6000000  0  9G212G202G223G221G216G203G219G206G218         
  22506187.760   118271990.160          38.500  
  24321861.990   127821594.902          37.000  
  25316689.570   133049303.160          35.500  
  22460248.640   118031059.035          38.250  
  24397710.420   128217905.031          36.000  
  21137638.820   111086470.926          41.500  
  22230876.640   116827366.492          39.500  
  21827629.330   114711926.203          39.500  
  24783848.450   130243953.320          36.000  
 14 04 06 03 58 24.8000000  0  9G212G202G223G221G216G203G219G206G218         
  22506079.140   118271455.746          37.750  
  24321765.480   127821070.520          36.500  
  25316823.440   133049969.281          36.000  
  22460353.080   118031646.375          39.000  
  24397768.760   128218173.051          36.500  
  21137680.610   111086672.461          42.000  
  22230967.050   116827808.289          40.000  
  21827509.920   114711344.055          39.500  
  24783973.780   130244585.934          35.750  
 14 04 06 03 58 25.0000000  0  9G212G202G223G221G216G203G219G206G218         
  22505979.820   118270921.309          38.000  
  24321662.560   127820546.145          36.500  
  25316938.990   133050635.258          35.500  
  22460463.590   118032233.773          38.250  
  24397817.740   128218441.016          36.500  
  21137715.470   111086874.031          41.500  
  22231047.840   116828250.105          39.500  
  21827402.270   114710761.973          39.250  
  24784088.370   130245218.629          36.000  
